,community,clean,smell,noise,town,district,longitude,latitude,score,coordinates,mobike_count,service_count,leisure_count,culture_count,classe
0,万寿社区居委会,3,1,1,盈浦街道,青浦区,121.104287016932,31.1558823799679,0.9166666666666665,POINT (121.104287016932 31.1558823799679),-0.9401915124288907,0.8803211313082131,0.7473405353556745,-0.0074737289237464645,very happy
1,万泰花园第一居委会,3,0,1,七宝镇,闵行区,121.351529089795,31.144326843509,0.5833333333333333,POINT (121.351529089795 31.144326843509),-0.6882136680942417,-0.08794018958769832,-0.18852748106572048,0.4142581174876589,very unhappy
2,万科阳光苑居委会,2,1,1,吴泾镇,闵行区,121.468520387505,31.0422853979528,0.8333333333333333,POINT (121.468520387505 31.0422853979528),-0.9281103829059966,-0.814136180259632,-0.6564614892764179,-0.8509374217465573,happy
3,万豪居委会,3,1,1,长征镇,普陀区,121.367237458941,31.2407251034807,0.9166666666666665,POINT (121.367237458941 31.2407251034807),0.48710764691874486,-0.20897285469968727,-0.4559183429004047,-0.8509374217465573,very happy
4,万馨居委会,3,1,1,川沙新镇,浦东新区,121.668505522212,31.1953057158861,0.9166666666666665,POINT (121.668505522212 31.1953057158861),-0.9229327559676134,-1.0562015104836098,-0.5227660583590759,-0.42920557533515186,very happy
5,三泉路一零一五弄居委会,3,1,1,彭浦新村街道,静安区,121.43631336367,31.3199436665669,0.9166666666666665,POINT (121.43631336367 31.3199436665669),0.45604188528844564,-0.4510381849236651,0.7473405353556745,-0.0074737289237464645,very happy
6,三泉路七七零弄居委会,3,1,1,彭浦新村街道,静安区,121.436859112757,31.3170628592636,0.9166666666666665,POINT (121.436859112757 31.3170628592636),0.45949363658070114,-0.3300055198116762,0.41310195806231914,-0.0074737289237464645,very happy
7,三湘居委会,3,1,1,五角场街道,杨浦区,121.485432275279,31.3020103279143,0.9166666666666665,POINT (121.485432275279 31.3020103279143),2.0680097387717487,0.03309247552429061,-0.38907062744173365,0.4142581174876589,very happy
8,三湘盛世花苑居委会,2,1,1,张庙街道,宝山区,121.447584620833,31.3274228855577,0.8333333333333333,POINT (121.447584620833 31.3274228855577),1.3759336046745276,0.15412514063627955,0.47994967352099016,0.8359899638990643,happy
9,上南五村居委会,3,1,1,周家渡街道,浦东新区,121.495845054905,31.1819830763579,0.9166666666666665,POINT (121.495845054905 31.1819830763579),-0.6070975127262381,-0.4510381849236651,-0.38907062744173365,-0.8509374217465573,very happy
10,上炼新村二居委会,3,1,1,高桥镇,浦东新区,121.566878362846,31.3390515476908,0.9166666666666665,POINT (121.566878362846 31.3390515476908),-0.9073998751524638,-0.814136180259632,-0.5896137738177468,-0.0074737289237464645,very happy
11,世强居委会,3,1,0,叶榭镇,松江区,121.313354508403,30.9468041892619,0.5833333333333333,POINT (121.313354508403 30.9468041892619),-0.9401915124288907,-0.572070850035654,-0.5896137738177468,-0.8509374217465573,very unhappy
12,东南居委会,2,1,1,潍坊新村街道,浦东新区,121.511941125382,31.2272922646263,0.8333333333333333,POINT (121.511941125382 31.2272922646263),-0.62090451789526,0.6382558010842353,0.34625424260364807,-0.42920557533515186,happy
13,东南居委会,2,1,1,周浦镇,浦东新区,121.577741975311,31.1137186964607,0.8333333333333333,POINT (121.577741975311 31.1137186964607),-0.8935928699834419,-0.08794018958769832,0.07886338076896379,-0.42920557533515186,happy
14,东场居委会,2,1,1,书院镇,浦东新区,121.892088710925,30.9212634413547,0.8333333333333333,POINT (121.892088710925 30.9212634413547),-0.9401915124288907,-1.0562015104836098,-0.9238523511111022,-0.8509374217465573,happy
15,东城新村第六居委会,2,1,1,花木街道,浦东新区,121.528614912248,31.2012361296437,0.8333333333333333,POINT (121.528614912248 31.2012361296437),-0.6813101655097307,-0.572070850035654,-0.5896137738177468,-0.42920557533515186,happy
16,东城新村第四居委会,3,1,1,花木街道,浦东新区,121.532967564401,31.2062656736219,0.9166666666666665,POINT (121.532967564401 31.2062656736219),-0.5639506215730448,-0.572070850035654,-0.5227660583590759,-0.42920557533515186,very happy
17,东大名居委会,2,1,1,提篮桥街道,虹口区,121.506737160591,31.2517421240997,0.8333333333333333,POINT (121.506737160591 31.2517421240997),0.3559410978130371,-0.20897285469968727,-0.4559183429004047,0.4142581174876589,happy
18,东方居委会,2,1,1,塘桥街道,浦东新区,121.517032051687,31.2068942062027,0.8333333333333333,POINT (121.517032051687 31.2068942062027),-0.7089241758477745,-0.814136180259632,-0.32222291198306263,0.4142581174876589,happy
19,东林居委会,2,1,1,朱泾镇,金山区,121.160669007168,30.8965166419295,0.8333333333333333,POINT (121.160669007168 30.8965166419295),-0.9401915124288907,-0.08794018958769832,0.07886338076896379,0.4142581174876589,happy
20,东波苑第四居委会,3,1,1,沪东新村街道,浦东新区,121.57776434235,31.2876519598701,0.9166666666666665,POINT (121.57776434235 31.2876519598701),-0.8504459788302485,-0.4510381849236651,-0.32222291198306263,-0.8509374217465573,very happy
21,东白林寺居委会,2,1,0,定海路街道,杨浦区,121.543402583362,31.2765613810029,0.5,POINT (121.543402583362 31.2765613810029),1.1446662680934112,0.7592884661962241,-0.6564614892764179,-0.8509374217465573,very unhappy
22,东陆路一居委会,3,1,1,浦兴路街道,浦东新区,121.592416481135,31.2730692730285,0.9166666666666665,POINT (121.592416481135 31.2730692730285),-0.6882136680942417,-0.572070850035654,-0.32222291198306263,-0.0074737289237464645,very happy
23,中凯居委会,3,1,1,南京西路街道,静安区,121.46132993273,31.2272511656088,0.9166666666666665,POINT (121.46132993273 31.2272511656088),0.8374604030826748,1.9696151173161138,1.7500562672357405,0.8359899638990643,very happy
24,中凯居委会,3,1,1,南京西路街道,静安区,121.46132993273,31.2272511656088,0.9166666666666665,POINT (121.46132993273 31.2272511656088),0.8374604030826748,1.9696151173161138,1.7500562672357405,0.8359899638990643,very happy
25,中原路九十九弄居委会,2,1,0,五角场镇,杨浦区,121.52689846799,31.3157262229868,0.5,POINT (121.52689846799 31.3157262229868),3.0224189710803855,-0.20897285469968727,-0.5227660583590759,0.8359899638990643,very unhappy
26,中山东一路居委会,4,1,1,外滩街道,黄浦区,121.485321703633,31.2356838584233,1.0,POINT (121.485321703633 31.2356838584233),1.2413153042765643,1.7275497870921357,4.22342173920657,2.1011855031332805,very happy
27,中港居委会,2,1,1,海湾镇,奉贤区,121.70041899564,30.8604809217571,0.8333333333333333,POINT (121.70041899564 30.8604809217571),-0.9401915124288907,-1.0562015104836098,-0.9238523511111022,-0.8509374217465573,happy
28,中环家园社区居委会,3,1,0,万里街道,普陀区,121.408071457032,31.2680848750169,0.5833333333333333,POINT (121.408071457032 31.2680848750169),0.9927892112341707,-0.572070850035654,-0.054832050148378345,-0.0074737289237464645,very unhappy
29,中远两湾城第三居委会,3,1,0,宜川路街道,普陀区,121.432523701507,31.2523889533875,0.5833333333333333,POINT (121.432523701507 31.2523889533875),1.1740061540775828,1.122386461532191,-0.054832050148378345,0.8359899638990643,very unhappy
30,丰怡苑居委会,2,1,1,曹路镇,浦东新区,121.671410156153,31.2682205629286,0.8333333333333333,POINT (121.671410156153 31.2682205629286),-0.9281103829059966,-1.0562015104836098,-0.79015692019376,-0.8509374217465573,happy
31,临汾路一二四四弄居委会,3,1,1,彭浦新村街道,静安区,121.4383433044,31.3140192557841,0.9166666666666665,POINT (121.4383433044 31.3140192557841),0.7442631181917772,-0.3300055198116762,0.5467973889796612,-0.0074737289237464645,very happy
32,丽二居委会,3,1,1,打浦桥街道,黄浦区,121.474220823931,31.2091499172349,0.9166666666666665,POINT (121.474220823931 31.2091499172349),1.6814135940391364,1.2434191266441799,0.41310195806231914,1.679453656721875,very happy
33,九城湖滨社区居委会,3,1,0,九里亭街道,松江区,121.314838209016,31.1507703672587,0.5833333333333333,POINT (121.314838209016 31.1507703672587),-0.7796850773390115,-0.4510381849236651,-0.79015692019376,-0.0074737289237464645,very unhappy
34,九茂居委会,2,1,0,长寿路街道,普陀区,121.436921996053,31.2423449443637,0.5,POINT (121.436921996053 31.2423449443637),1.0514689832025137,2.2116804475400915,0.6136451044383323,0.8359899638990643,very unhappy
35,云南居委会,3,1,1,外滩街道,黄浦区,121.477493438871,31.2287098614709,0.9166666666666665,POINT (121.477493438871 31.2287098614709),1.567505801394706,3.300974433547992,5.292985186545307,1.679453656721875,very happy
36,交大新村居委会,3,1,1,徐家汇街道,徐汇区,121.422759228755,31.193064227632,0.9166666666666665,POINT (121.422759228755 31.193064227632),0.4284278749504019,1.9696151173161138,1.6832085517770694,2.5229173495446857,very happy
37,交通公园居委会,3,1,1,芷江西路街道,静安区,121.463362397856,31.2500182289581,0.9166666666666665,POINT (121.463362397856 31.2500182289581),0.9565458226654884,0.3961904708602574,0.21255881168630592,-0.0074737289237464645,very happy
38,交通社区居委会,3,1,0,堡镇,崇明区,121.615000395751,31.5434368736129,0.5833333333333333,POINT (121.615000395751 31.5434368736129),-0.9401915124288907,-0.4510381849236651,-0.5227660583590759,-0.0074737289237464645,very unhappy
39,亭中居委会,3,1,0,九亭镇,松江区,121.326948402346,31.130158222524,0.5833333333333333,POINT (121.326948402346 31.130158222524),-0.783136828631267,-0.3300055198116762,-0.5227660583590759,-0.8509374217465573,very unhappy
40,仓桥社区居委会,4,1,1,夏阳街道,青浦区,121.123877371743,31.1588531662407,1.0,POINT (121.123877371743 31.1588531662407),-0.9401915124288907,-0.814136180259632,-0.38907062744173365,-0.42920557533515186,very happy
41,众乐里居委会,2,1,1,江宁路街道,静安区,121.446789616547,31.2347919953543,0.8333333333333333,POINT (121.446789616547 31.2347919953543),1.211975418292393,2.8168437731000364,1.282122259025043,1.679453656721875,happy
42,伟业居委会,3,1,1,沪东新村街道,浦东新区,121.57911954603,31.2845291378095,0.9166666666666665,POINT (121.57911954603 31.2845291378095),-0.8314613467228434,-0.4510381849236651,-0.5896137738177468,-0.8509374217465573,very happy
43,佳木斯路三一五弄居委会,1,1,1,五角场镇,杨浦区,121.534568863062,31.297852523775,0.75,POINT (121.534568863062 31.297852523775),1.755626246822629,-0.4510381849236651,-0.18852748106572048,-0.0074737289237464645,unhappy
44,侯黄桥社区居委会,3,1,0,嘉定镇街道,嘉定区,121.231667486165,31.3743961388707,0.5833333333333333,POINT (121.231667486165 31.3743961388707),-0.9298362585521243,-0.814136180259632,-0.5227660583590759,-0.8509374217465573,very unhappy
45,元丰花园居委会,3,1,1,北新泾街道,长宁区,121.374800250131,31.2195953377546,0.9166666666666665,POINT (121.374800250131 31.2195953377546),-0.36892667356061093,-0.20897285469968727,-0.32222291198306263,-0.0074737289237464645,very happy
46,元吉新村居委会,3,1,1,马桥镇,闵行区,121.379520352682,31.0468922848511,0.9166666666666665,POINT (121.379520352682 31.0468922848511),-0.9350138854905075,-1.0562015104836098,-0.8570046356524311,-0.8509374217465573,very happy
47,兆庆居委会,2,1,1,提篮桥街道,虹口区,121.498237282124,31.2568522599239,0.8333333333333333,POINT (121.498237282124 31.2568522599239),0.9858857086496599,0.6382558010842353,0.14571109622763484,-0.0074737289237464645,happy
48,光华绿苑居委会,3,1,1,华泾镇,徐汇区,121.448506461004,31.1131900902504,0.9166666666666665,POINT (121.448506461004 31.1131900902504),-0.7589745695854787,-0.814136180259632,-0.9238523511111022,-0.8509374217465573,very happy
49,光明社区居委会,2,1,0,堡镇,崇明区,121.610751852715,31.5345688297877,0.5,POINT (121.610751852715 31.5345688297877),-0.9401915124288907,-0.814136180259632,-0.5896137738177468,-0.0074737289237464645,very unhappy
50,共富新村第五居委会,3,1,1,顾村镇,宝山区,121.423363615438,31.3473855974673,0.9166666666666665,POINT (121.423363615438 31.3473855974673),-0.7399899374780736,-0.814136180259632,-0.38907062744173365,-0.8509374217465573,very happy
51,共康八村一居委会,2,1,1,庙行镇,宝山区,121.428870038421,31.3261098187132,0.8333333333333333,POINT (121.428870038421 31.3261098187132),-0.28263289125422425,-0.9351688453716208,-0.18852748106572048,-0.8509374217465573,happy
52,共康六村一居委会,3,1,1,庙行镇,宝山区,121.436393796336,31.329580726969,0.9166666666666665,POINT (121.436393796336 31.329580726969),0.5423356675948323,-0.4510381849236651,0.5467973889796612,-0.8509374217465573,very happy
53,共康四村第二居委会,3,1,1,彭浦新村街道,静安区,121.429496286724,31.3192593175634,0.9166666666666665,POINT (121.429496286724 31.3192593175634),-0.44831695328248666,-0.814136180259632,-0.18852748106572048,-0.42920557533515186,very happy
54,凉城新村第一居委会,3,1,1,凉城新村街道,虹口区,121.471474570495,31.2925805324656,0.9166666666666665,POINT (121.471474570495 31.2925805324656),1.224056547815287,0.03309247552429061,-0.054832050148378345,-0.0074737289237464645,very happy
55,凉城新村第四居委会,3,1,1,凉城新村街道,虹口区,121.470228327775,31.2982741781108,0.9166666666666665,POINT (121.470228327775 31.2982741781108),1.0963417500018349,-0.693103515147643,-0.054832050148378345,-0.0074737289237464645,very happy
56,凌兆新村第九居委会,1,1,1,东明路街道,浦东新区,121.492403679486,31.1476944160644,0.75,POINT (121.492403679486 31.1476944160644),-0.7192794297245408,-0.3300055198116762,-0.38907062744173365,-0.8509374217465573,unhappy
57,凌兆新村第十一居委会,2,1,1,东明路街道,浦东新区,121.488891100244,31.1468793640914,0.8333333333333333,POINT (121.488891100244 31.1468793640914),-0.7693298234622451,-0.20897285469968727,-0.38907062744173365,-0.8509374217465573,happy
58,凌兆新村第十二居委会,2,1,1,东明路街道,浦东新区,121.485772901598,31.1461890049187,0.8333333333333333,POINT (121.485772901598 31.1461890049187),-0.783136828631267,-0.20897285469968727,-0.6564614892764179,-0.8509374217465573,happy
59,凌河路四居委会,3,1,1,浦兴路街道,浦东新区,121.589557094784,31.2786895591758,0.9166666666666665,POINT (121.589557094784 31.2786895591758),-0.7279088079551795,-0.572070850035654,-0.5227660583590759,0.4142581174876589,very happy
60,凤翔居委会,2,0,1,朱泾镇,金山区,121.162573415131,30.9026065378614,0.5,POINT (121.162573415131 30.9026065378614),-0.9401915124288907,-0.20897285469968727,-0.12167976560704942,0.4142581174876589,very unhappy
61,北唐社区居委会,4,1,0,青村镇,奉贤区,121.571791627181,30.929096142473,0.6666666666666666,POINT (121.571791627181 30.929096142473),-0.9401915124288907,-0.9351688453716208,-0.9238523511111022,-0.8509374217465573,very unhappy
62,北圩居委会,3,1,1,朱泾镇,金山区,121.154689297073,30.9019256593417,0.9166666666666665,POINT (121.154689297073 30.9019256593417),-0.9401915124288907,-0.4510381849236651,-0.32222291198306263,-0.0074737289237464645,very happy
63,北翟路居委会,2,1,1,北新泾街道,长宁区,121.360085186682,31.2251334726316,0.8333333333333333,POINT (121.360085186682 31.2251334726316),0.3473117195823984,0.03309247552429061,-0.054832050148378345,-0.42920557533515186,happy
64,千步泾社区居委会,3,1,1,夏阳街道,青浦区,121.133898744831,31.1579135356811,0.9166666666666665,POINT (121.133898744831 31.1579135356811),-0.9401915124288907,-0.9351688453716208,-0.9238523511111022,-0.42920557533515186,very happy
65,华东花苑第二居委会,2,1,0,长桥街道,徐汇区,121.430278487362,31.1502784677771,0.5,POINT (121.430278487362 31.1502784677771),0.21096754353830752,-0.4510381849236651,-0.6564614892764179,-0.0074737289237464645,very unhappy
66,华富居委会,2,1,1,漕河泾街道,徐汇区,121.438849971648,31.1753949722002,0.8333333333333333,POINT (121.438849971648 31.1753949722002),0.7287302373766276,0.2751578057482685,-0.32222291198306263,-0.0074737289237464645,happy
67,华建居委会,2,1,1,华泾镇,徐汇区,121.435082532632,31.1219310850515,0.8333333333333333,POINT (121.435082532632 31.1219310850515),-0.6001940101417272,-0.9351688453716208,-0.79015692019376,-0.42920557533515186,happy
68,华松居委会,3,1,1,新泾镇,长宁区,121.353284827233,31.2124451384324,0.9166666666666665,POINT (121.353284827233 31.2124451384324),0.014217719879745894,-0.20897285469968727,-0.32222291198306263,-0.42920557533515186,very happy
69,华林路第三居委会,3,1,1,七宝镇,闵行区,121.348423955601,31.1424463602114,0.9166666666666665,POINT (121.348423955601 31.1424463602114),-0.7417158131242013,0.5172231359722463,-0.12167976560704942,-0.0074737289237464645,very happy
70,华浜居委会,2,1,1,淞南镇,宝山区,121.492534273637,31.3506431505609,0.8333333333333333,POINT (121.492534273637 31.3506431505609),-0.30679515030001253,-0.4510381849236651,-0.5896137738177468,-0.8509374217465573,happy
71,华阳路三居委会,2,1,1,华阳路街道,长宁区,121.419661886287,31.2246765396906,0.8333333333333333,POINT (121.419661886287 31.2246765396906),0.6165483203783249,0.7592884661962241,1.415817689942385,3.788112888778902,happy
72,华阳路二居委会,2,0,1,华阳路街道,长宁区,121.418177060622,31.2282570780017,0.5,POINT (121.418177060622 31.2282570780017),0.4905593982110003,0.03309247552429061,1.1484268281077008,4.6315765816017125,very unhappy
73,华阴路居委会,2,1,0,宜川路街道,普陀区,121.440627226265,31.263440063708,0.5,POINT (121.440627226265 31.263440063708),1.0031444651109371,0.2751578057482685,0.5467973889796612,-0.0074737289237464645,very unhappy
74,南丹居委会,3,1,1,徐家汇街道,徐汇区,121.425687062508,31.1936445124842,0.9166666666666665,POINT (121.425687062508 31.1936445124842),0.5820308074557702,1.7275497870921357,3.3544014382438463,2.9446491959560914,very happy
75,南塘居委会,3,1,1,打浦桥街道,黄浦区,121.46764930597,31.205779277092,0.9166666666666665,POINT (121.46764930597 31.205779277092),1.6814135940391364,0.8803211313082131,0.07886338076896379,2.5229173495446857,very happy
76,南天潼居委会,3,1,1,四川北路街道,虹口区,121.479316272927,31.2463397886504,0.9166666666666665,POINT (121.479316272927 31.2463397886504),0.9410129418503388,1.8485824522041245,5.426680617462649,2.5229173495446857,very happy
77,南新六村居委会,2,1,1,北蔡镇,浦东新区,121.533023506729,31.1744647665357,0.8333333333333333,POINT (121.533023506729 31.1744647665357),-0.6864877924481139,-0.3300055198116762,-0.25537519652439156,-0.42920557533515186,happy
78,南新四村居委会,2,1,1,北蔡镇,浦东新区,121.536963742382,31.1753586144085,0.8333333333333333,POINT (121.536963742382 31.1753586144085),-0.6933912950326249,-0.4510381849236651,-0.5227660583590759,-0.42920557533515186,happy
79,南杨居委会,2,1,1,北蔡镇,浦东新区,121.530174224261,31.1735814596167,0.8333333333333333,POINT (121.530174224261 31.1735814596167),-0.7296346836013072,-0.3300055198116762,-0.12167976560704942,-0.42920557533515186,happy
80,南郊别墅居委会,3,1,1,莘庄工业区,闵行区,121.367288597091,31.0821793446011,0.9166666666666665,POINT (121.367288597091 31.0821793446011),-0.9350138854905075,-0.9351688453716208,-0.8570046356524311,-0.8509374217465573,very happy
81,古美路第一居委会,3,1,0,虹梅路街道,徐汇区,121.394937516853,31.1581852838238,0.5833333333333333,POINT (121.394937516853 31.1581852838238),-0.3723784248528664,0.15412514063627955,0.012015665310292719,-0.8509374217465573,very unhappy
82,叶家宅居委会,2,1,1,长寿路街道,普陀区,121.424506258057,31.2378461613712,0.8333333333333333,POINT (121.424506258057 31.2378461613712),0.8564450351900799,0.8803211313082131,0.41310195806231914,1.679453656721875,happy
83,合一居委会,2,1,1,淮海中路街道,黄浦区,121.475255543408,31.2173917271465,0.8333333333333333,POINT (121.475255543408 31.2173917271465),1.353497221274867,1.364451791756169,2.017447129070425,0.4142581174876589,happy
84,合生城邦城第三居委会,3,1,1,江川路街道,闵行区,121.401391261397,31.0188818646064,0.9166666666666665,POINT (121.401391261397 31.0188818646064),-0.9298362585521243,-0.9351688453716208,-0.79015692019376,-0.42920557533515186,very happy
85,合生城邦城第二居委会,3,1,1,江川路街道,闵行区,121.400606484201,31.0233309051971,0.9166666666666665,POINT (121.400606484201 31.0233309051971),-0.9332880098443798,-1.0562015104836098,-0.723309204735089,-0.42920557533515186,very happy
86,合阳居委会,2,1,0,甘泉路街道,普陀区,121.43522442047,31.2656438955493,0.5,POINT (121.43522442047 31.2656438955493),0.8737037916513571,0.15412514063627955,0.07886338076896379,-0.42920557533515186,very unhappy
87,吉浦一居委会,2,1,0,五角场街道,杨浦区,121.487057065131,31.3085812631148,0.5,POINT (121.487057065131 31.3085812631148),2.306180577937376,0.03309247552429061,-0.38907062744173365,-0.42920557533515186,very unhappy
88,吉浦居委会,3,1,1,五角场街道,杨浦区,121.486435044541,31.3114725646072,0.9166666666666665,POINT (121.486435044541 31.3114725646072),2.753182370284459,-0.3300055198116762,-0.5227660583590759,-0.42920557533515186,very happy
89,吉祥居委会,2,1,1,四川北路街道,虹口区,121.483866444081,31.2681006608169,0.8333333333333333,POINT (121.483866444081 31.2681006608169),1.885066920282209,2.937876438212025,0.47994967352099016,0.8359899638990643,happy
90,吉祥居委会,2,1,1,平凉路街道,杨浦区,121.515043531933,31.2585312159429,0.8333333333333333,POINT (121.515043531933 31.2585312159429),0.8616226621284631,0.2751578057482685,-0.38907062744173365,0.8359899638990643,happy
91,名都新城居委会,3,1,1,莘庄镇,闵行区,121.386031830104,31.1096367762162,0.9166666666666665,POINT (121.386031830104 31.1096367762162),-0.46212395845150855,0.15412514063627955,-0.18852748106572048,-0.0074737289237464645,very happy
92,呼玛五村居委会,2,1,1,张庙街道,宝山区,121.43586644468,31.3453607460016,0.8333333333333333,POINT (121.43586644468 31.3453607460016),-0.3050692746538848,-0.572070850035654,-0.79015692019376,-0.8509374217465573,happy
93,和合居委会,2,1,1,康桥镇,浦东新区,121.573498388439,31.1529914049294,0.8333333333333333,POINT (121.573498388439 31.1529914049294),-0.8435424762457376,-0.572070850035654,-0.79015692019376,-0.8509374217465573,happy
94,和泰苑居委会,2,1,0,大场镇,宝山区,121.405924249204,31.3294025910568,0.5,POINT (121.405924249204 31.3294025910568),-0.7399899374780736,-0.4510381849236651,-0.18852748106572048,-0.0074737289237464645,very unhappy
95,嘉中社区居委会,3,1,0,嘉定镇街道,嘉定区,121.246424070414,31.3935261711959,0.5833333333333333,POINT (121.246424070414 31.3935261711959),-0.9367397611366353,-0.08794018958769832,0.47994967352099016,-0.42920557533515186,very unhappy
96,嘉萱苑居委会,3,1,1,漕河泾街道,徐汇区,121.432803014747,31.1680942416559,0.9166666666666665,POINT (121.432803014747 31.1680942416559),0.5647720509944929,0.6382558010842353,-0.18852748106572048,0.4142581174876589,very happy
97,四团居委会,2,1,0,四团镇,奉贤区,121.717035308632,30.9443243779677,0.5,POINT (121.717035308632 30.9443243779677),-0.9401915124288907,-0.4510381849236651,-0.6564614892764179,-0.8509374217465573,very unhappy
98,团结花苑居委会,3,1,1,莘庄镇,闵行区,121.366252603275,31.1056530601406,0.9166666666666665,POINT (121.366252603275 31.1056530601406),-0.7814109529851392,-0.3300055198116762,0.34625424260364807,1.2577218103104697,very happy
99,国定一居委会,2,1,1,五角场街道,杨浦区,121.503809114598,31.3082623994902,0.8333333333333333,POINT (121.503809114598 31.3082623994902),1.619282070778538,0.3961904708602574,0.8141882508143455,1.2577218103104697,happy
100,国年居委会,2,1,1,五角场街道,杨浦区,121.505381748269,31.2932536840103,0.8333333333333333,POINT (121.505381748269 31.2932536840103),1.4466945061657646,-0.20897285469968727,0.012015665310292719,1.2577218103104697,happy
101,地方天园居委会,2,1,0,长寿路街道,普陀区,121.419246582963,31.2407351920755,0.5,POINT (121.419246582963 31.2407351920755),0.6838574705773065,1.2434191266441799,-0.054832050148378345,1.2577218103104697,very unhappy
102,场西居委会,3,1,0,新桥镇,松江区,121.329969813256,31.0874496262992,0.5833333333333333,POINT (121.329969813256 31.0874496262992),-0.9315621341982521,-0.9351688453716208,-0.8570046356524311,-0.8509374217465573,very unhappy
103,城西居委会,3,1,1,杨行镇,宝山区,121.438999205149,31.4075400548297,0.9166666666666665,POINT (121.438999205149 31.4075400548297),-0.8608012327070149,-0.9351688453716208,-0.8570046356524311,-0.8509374217465573,very happy
104,城西居委会,3,1,1,川沙新镇,浦东新区,121.686948228777,31.2025967994028,0.9166666666666665,POINT (121.686948228777 31.2025967994028),-0.9332880098443798,-0.08794018958769832,0.21255881168630592,-0.8509374217465573,very happy
105,城西居委会,3,1,1,城桥镇,崇明区,121.381668039848,31.6290707765951,0.9166666666666665,POINT (121.381668039848 31.6290707765951),-0.9401915124288907,-1.0562015104836098,-0.723309204735089,-0.8509374217465573,very happy
106,培花新村四居委会,2,1,1,花木街道,浦东新区,121.559701215338,31.1954442744337,0.8333333333333333,POINT (121.559701215338 31.1954442744337),-0.7261829323090517,-0.814136180259632,-0.4559183429004047,-0.8509374217465573,happy
107,塘园居委会,2,1,1,朱泾镇,金山区,121.157496309607,30.8858611703568,0.8333333333333333,POINT (121.157496309607 30.8858611703568),-0.9401915124288907,-0.572070850035654,-0.5227660583590759,-0.8509374217465573,happy
108,墨玉社区居委会,2,1,1,安亭镇,嘉定区,121.165329941523,31.3259569879247,0.8333333333333333,POINT (121.165329941523 31.3259569879247),-0.9401915124288907,-1.0562015104836098,-0.9238523511111022,-0.8509374217465573,happy
109,复兴居委会,2,1,1,淮海中路街道,黄浦区,121.470434313892,31.217398517028,0.8333333333333333,POINT (121.470434313892 31.217398517028),1.1049711282324735,1.122386461532191,1.6163608363183983,0.4142581174876589,happy
110,复兴居委会,2,1,1,亭林镇,金山区,121.311641166806,30.8857280554054,0.8333333333333333,POINT (121.311641166806 30.8857280554054),-0.9401915124288907,-0.693103515147643,-0.32222291198306263,-0.8509374217465573,happy
111,复兴岛居委会,3,1,1,定海路街道,杨浦区,121.558199209925,31.2867773439992,0.9166666666666665,POINT (121.558199209925 31.2867773439992),-0.310246901592268,-0.9351688453716208,-0.8570046356524311,-0.8509374217465573,very happy
112,大华三村五居委会,2,1,0,大场镇,宝山区,121.410092864993,31.2856583886238,0.5,POINT (121.410092864993 31.2856583886238),0.5388839163025768,-0.4510381849236651,-0.18852748106572048,-0.42920557533515186,very unhappy
113,大华四村第五居委会,3,1,0,大场镇,宝山区,121.404209448007,31.283645623147,0.5833333333333333,POINT (121.404209448007 31.283645623147),0.6251776986089636,-0.20897285469968727,-0.32222291198306263,-0.8509374217465573,very unhappy
114,大华四村第六居委会,3,1,1,大场镇,宝山区,121.401011060412,31.280088548148,0.9166666666666665,POINT (121.401011060412 31.280088548148),0.3196977092443547,-0.3300055198116762,-0.12167976560704942,-0.8509374217465573,very happy
115,大唐花园居委会,2,1,0,顾村镇,宝山区,121.397349205401,31.3438717591744,0.5,POINT (121.397349205401 31.3438717591744),-0.8418166005996099,-0.572070850035654,-0.38907062744173365,-0.8509374217465573,very unhappy
116,大桥居委会,2,1,1,华泾镇,徐汇区,121.45443479463,31.1250648698479,0.8333333333333333,POINT (121.45443479463 31.1250648698479),-0.6657772846945811,-1.0562015104836098,-0.8570046356524311,-0.8509374217465573,happy
117,大统居委会,2,1,1,芷江西路街道,静安区,121.45568187282,31.2569754382658,0.8333333333333333,POINT (121.45568187282 31.2569754382658),0.8650744134207184,0.7592884661962241,0.41310195806231914,-0.0074737289237464645,happy
118,大连新村第二居委会,3,1,1,欧阳路街道,虹口区,121.487996798213,31.2751162801922,0.9166666666666665,POINT (121.487996798213 31.2751162801922),1.9920712103421285,1.6065171219801466,0.012015665310292719,2.1011855031332805,very happy
119,大连西路四弄居委会,3,1,1,四平路街道,杨浦区,121.496218375177,31.280042761864,0.9166666666666665,POINT (121.496218375177 31.280042761864),2.2682113137225657,1.2434191266441799,-0.18852748106572048,2.1011855031332805,very happy
120,天原二村居委会,3,1,0,仙霞新村街道,长宁区,121.38592944139,31.2150598417383,0.5833333333333333,POINT (121.38592944139 31.2150598417383),-0.20496848717847627,-0.08794018958769832,-0.054832050148378345,-0.0074737289237464645,very unhappy
121,天钥新村第三居委会,3,1,1,枫林路街道,徐汇区,121.443156665747,31.1878363705521,0.9166666666666665,POINT (121.443156665747 31.1878363705521),1.372481853382272,1.6065171219801466,0.21255881168630592,1.2577218103104697,very happy
122,天馨花园第一居委会,2,1,1,杨行镇,宝山区,121.426125248181,31.365110795227,0.8333333333333333,POINT (121.426125248181 31.365110795227),-0.6778584142174752,-0.572070850035654,-0.25537519652439156,-0.8509374217465573,happy
123,天马社区居委会,2,1,1,马陆镇,嘉定区,121.28167212207,31.3361120524293,0.8333333333333333,POINT (121.28167212207 31.3361120524293),-0.9350138854905075,-0.20897285469968727,-0.5896137738177468,-0.8509374217465573,happy
124,天马社区居委会,2,1,1,佘山镇,松江区,121.143875959408,31.0761689775163,0.8333333333333333,POINT (121.143875959408 31.0761689775163),-0.9401915124288907,-0.814136180259632,-0.8570046356524311,-0.8509374217465573,happy
125,好日子大家园第二居委会,3,1,1,顾村镇,宝山区,121.3561427333,31.3535919762887,0.9166666666666665,POINT (121.3561427333 31.3535919762887),-0.7589745695854787,-0.693103515147643,-0.723309204735089,-0.8509374217465573,very happy
126,妙港居委会,3,1,0,川沙新镇,浦东新区,121.691223800038,31.1881207137,0.5833333333333333,POINT (121.691223800038 31.1881207137),-0.9281103829059966,0.5172231359722463,-0.054832050148378345,-0.8509374217465573,very unhappy
127,威宁居委会,3,1,1,仙霞新村街道,长宁区,121.381427854312,31.2105263395189,0.9166666666666665,POINT (121.381427854312 31.2105263395189),-0.2550188809161805,-0.3300055198116762,-0.12167976560704942,-0.0074737289237464645,very happy
128,娄塘社区居委会,1,1,0,徐行镇,嘉定区,121.211117730099,31.4302241638141,0.41666666666666663,POINT (121.211117730099 31.4302241638141),-0.9401915124288907,-0.572070850035654,-0.723309204735089,-0.8509374217465573,very unhappy
129,学宫新村居委会,3,1,0,城桥镇,崇明区,121.401781123799,31.6183514351706,0.5833333333333333,POINT (121.401781123799 31.6183514351706),-0.9401915124288907,-0.572070850035654,-0.4559183429004047,-0.42920557533515186,very unhappy
130,安图新村居委会,3,1,1,长白新村街道,杨浦区,121.537107193242,31.2924166867807,0.9166666666666665,POINT (121.537107193242 31.2924166867807),2.1215118838017086,-0.3300055198116762,-0.38907062744173365,0.8359899638990643,very happy
131,宛南六村居委会,4,1,1,枫林路街道,徐汇区,121.441752761081,31.1813857826278,1.0,POINT (121.441752761081 31.1813857826278),1.0980676256479625,1.122386461532191,0.07886338076896379,1.2577218103104697,very happy
132,宝宸怡景园居委会,3,1,1,庙行镇,宝山区,121.42988148794,31.3329153123918,0.9166666666666665,POINT (121.42988148794 31.3329153123918),-0.3223280311151621,-0.814136180259632,-0.32222291198306263,-0.8509374217465573,very happy
133,宝宸怡景园居委会,3,1,1,庙行镇,宝山区,121.42988148794,31.3329153123918,0.9166666666666665,POINT (121.42988148794 31.3329153123918),-0.3223280311151621,-0.814136180259632,-0.32222291198306263,-0.8509374217465573,very happy
134,宝杨路二零二一弄居委会,3,1,1,杨行镇,宝山区,121.459723037588,31.3921055040657,0.9166666666666665,POINT (121.459723037588 31.3921055040657),-0.9004963725679528,-0.814136180259632,-0.8570046356524311,-0.8509374217465573,very happy
135,宾阳路居委会,2,1,1,漕河泾街道,徐汇区,121.431477385273,31.1635777231334,0.8333333333333333,POINT (121.431477385273 31.1635777231334),0.38873273508946404,0.2751578057482685,-0.25537519652439156,-0.0074737289237464645,happy
136,富丽居委会,3,1,1,罗店镇,宝山区,121.361038682988,31.3902382740771,0.9166666666666665,POINT (121.361038682988 31.3902382740771),-0.9004963725679528,-0.693103515147643,-0.5227660583590759,-0.8509374217465573,very happy
137,富民居委会,3,1,1,张堰镇,金山区,121.282904605163,30.809224335135,0.9166666666666665,POINT (121.282904605163 30.809224335135),-0.9401915124288907,-0.814136180259632,-0.5896137738177468,-0.8509374217465573,very happy
138,富特三居委会,3,1,0,高桥镇,浦东新区,121.583199098359,31.3362725625287,0.5833333333333333,POINT (121.583199098359 31.3362725625287),-0.8815117404605478,-0.693103515147643,-0.723309204735089,-0.8509374217465573,very unhappy
139,富辰居委会,3,1,1,罗店镇,宝山区,121.355942581984,31.3872284563282,0.9166666666666665,POINT (121.355942581984 31.3872284563282),-0.8987704969218251,-0.693103515147643,-0.5227660583590759,-0.8509374217465573,very happy
140,寿光路二居委会,2,1,1,沪东新村街道,浦东新区,121.580181118363,31.2773638424674,0.8333333333333333,POINT (121.580181118363 31.2773638424674),-0.7727815747545006,-0.4510381849236651,-0.5227660583590759,-0.42920557533515186,happy
141,小寅居委会,2,1,1,九亭镇,松江区,121.286581648824,31.1436060081108,0.8333333333333333,POINT (121.286581648824 31.1436060081108),-0.9332880098443798,-1.0562015104836098,-0.9238523511111022,-0.8509374217465573,happy
142,屹立家园居委会,3,1,1,庙行镇,宝山区,121.427833296369,31.3285692477726,0.9166666666666665,POINT (121.427833296369 31.3285692477726),-0.3602972953299723,-0.9351688453716208,-0.18852748106572048,-0.8509374217465573,very happy
143,州桥社区居委会,3,0,0,嘉定镇街道,嘉定区,121.246104141992,31.3849543073954,0.25,POINT (121.246104141992 31.3849543073954),-0.9298362585521243,0.3961904708602574,0.9478836817316877,0.4142581174876589,very unhappy
144,左家宅居委会,3,1,1,新华路街道,长宁区,121.419795496764,31.2016672637332,0.9166666666666665,POINT (121.419795496764 31.2016672637332),0.7097456052692225,0.3961904708602574,0.14571109622763484,2.1011855031332805,very happy
145,市一(1)居委会,2,1,0,殷行街道,杨浦区,121.530083990783,31.3181246537298,0.5,POINT (121.530083990783 31.3181246537298),3.2088135408621805,0.15412514063627955,-0.4559183429004047,0.4142581174876589,very unhappy
146,市光路第三居委会,3,1,1,五角场镇,杨浦区,121.513155471847,31.3124795570859,0.9166666666666665,POINT (121.513155471847 31.3124795570859),2.157755272370391,-0.3300055198116762,0.5467973889796612,-0.0074737289237464645,very happy
147,市光路第三居委会,2,1,1,五角场镇,杨浦区,121.513155471847,31.3124795570859,0.8333333333333333,POINT (121.513155471847 31.3124795570859),2.157755272370391,-0.3300055198116762,0.5467973889796612,-0.0074737289237464645,happy
148,平塘居委会,3,0,1,新泾镇,长宁区,121.359549556766,31.2142011735453,0.5833333333333333,POINT (121.359549556766 31.2142011735453),0.28518019632180003,0.7592884661962241,0.6136451044383323,-0.0074737289237464645,very unhappy
149,平望街居委会,2,1,1,南京东路街道,黄浦区,121.475349197007,31.2331286110965,0.8333333333333333,POINT (121.475349197007 31.2331286110965),1.3707559777361444,4.027170424219926,6.362548633884044,2.1011855031332805,happy
150,幸福一村居委会,2,1,1,彭浦镇,静安区,121.438880879549,31.306073790473,0.8333333333333333,POINT (121.438880879549 31.306073790473),0.5889343100402812,-0.20897285469968727,0.14571109622763484,-0.0074737289237464645,happy
151,庆南居委会,2,1,1,合庆镇,浦东新区,121.713658668213,31.2352720498652,0.8333333333333333,POINT (121.713658668213 31.2352720498652),-0.9401915124288907,-0.814136180259632,-0.5227660583590759,-0.8509374217465573,happy
152,庆源居委会,3,1,1,嘉兴路街道,虹口区,121.486252422811,31.2577110828002,0.9166666666666665,POINT (121.486252422811 31.2577110828002),1.6089268169017716,3.422007098659981,0.8810359662730166,-0.0074737289237464645,very happy
153,庆阳居委会,3,1,1,嘉兴路街道,虹口区,121.487594630387,31.2640732331931,0.9166666666666665,POINT (121.487594630387 31.2640732331931),1.5657799257485783,2.2116804475400915,0.5467973889796612,-0.0074737289237464645,very happy
154,康城第三居委会,3,1,1,莘庄镇,闵行区,121.348509170861,31.1060323492135,0.9166666666666665,POINT (121.348509170861 31.1060323492135),-0.8935928699834419,-0.9351688453716208,-0.9238523511111022,-0.42920557533515186,very happy
155,延中居委会,2,1,1,瑞金二路街道,黄浦区,121.454103073398,31.2239874026965,0.8333333333333333,POINT (121.454103073398 31.2239874026965),1.346593718690356,2.2116804475400915,1.7500562672357405,0.8359899638990643,happy
156,延中居委会,2,1,1,南京西路街道,静安区,121.448760582434,31.2239444079081,0.8333333333333333,POINT (121.448760582434 31.2239444079081),1.3483195943364839,1.8485824522041245,2.6190765681984645,1.679453656721875,happy
157,建设新村居委会,3,1,1,欧阳路街道,虹口区,121.481397817655,31.2731845310413,0.9166666666666665,POINT (121.481397817655 31.2731845310413),2.1922727852929453,1.7275497870921357,0.41310195806231914,0.8359899638990643,very happy
158,建龙居委会,3,1,1,漕泾镇,金山区,121.41635493703,30.7961266484261,0.9166666666666665,POINT (121.41635493703 30.7961266484261),-0.9401915124288907,-0.9351688453716208,-0.8570046356524311,-0.8509374217465573,very happy
159,徐安第一社区居委会,3,1,1,徐泾镇,青浦区,121.27629068057,31.1630057561108,0.9166666666666665,POINT (121.27629068057 31.1630057561108),-0.8849634917528032,-0.9351688453716208,-0.723309204735089,-0.0074737289237464645,very happy
160,德州五村居委会,2,1,1,上钢新村街道,浦东新区,121.490962255104,31.1691337014592,0.8333333333333333,POINT (121.490962255104 31.1691337014592),-0.5535953676962784,-0.4510381849236651,-0.054832050148378345,-0.8509374217465573,happy
161,志丹居委会,2,1,1,甘泉路街道,普陀区,121.424239037101,31.2626925031565,0.8333333333333333,POINT (121.424239037101 31.2626925031565),0.8253792735597806,0.3961904708602574,0.14571109622763484,-0.0074737289237464645,happy
162,志成居委会,3,1,1,淮海中路街道,黄浦区,121.477177021402,31.2195108806226,0.9166666666666665,POINT (121.477177021402 31.2195108806226),1.2188789208769037,2.2116804475400915,2.35168570636378,0.4142581174876589,very happy
163,政通路第一居委会,2,1,1,五角场街道,杨浦区,121.51537758151,31.3028752751738,0.8333333333333333,POINT (121.51537758151 31.3028752751738),3.2139911678005637,0.15412514063627955,1.348969974483714,1.2577218103104697,happy
164,文化佳园居委会,4,1,1,五角场镇,杨浦区,121.520027934441,31.2908564574595,1.0,POINT (121.520027934441 31.2908564574595),1.4277098740583596,0.15412514063627955,-0.32222291198306263,0.4142581174876589,very happy
165,文定居委会,3,1,1,徐家汇街道,徐汇区,121.429241128375,31.1901074887696,0.9166666666666665,POINT (121.429241128375 31.1901074887696),0.8495415326055689,2.6958111079880474,4.490812601041254,2.9446491959560914,very happy
166,文苑第一居委会,2,0,1,凉城新村街道,虹口区,121.461238711797,31.3005937940683,0.5,POINT (121.461238711797 31.3005937940683),0.26964731550665044,-0.814136180259632,-0.25537519652439156,-0.42920557533515186,very unhappy
167,文苑第二居委会,3,1,1,凉城新村街道,虹口区,121.461281238938,31.2980708306043,0.9166666666666665,POINT (121.461281238938 31.2980708306043),0.23858155387635124,-0.693103515147643,-0.32222291198306263,-0.8509374217465573,very happy
168,新东苑居委会,2,1,0,新桥镇,松江区,121.323810807123,31.0675672445327,0.5,POINT (121.323810807123 31.0675672445327),-0.9401915124288907,-0.9351688453716208,-0.8570046356524311,-0.8509374217465573,very unhappy
169,新乐居委会,2,1,0,湖南路街道,徐汇区,121.449916710387,31.2191650984905,0.5,POINT (121.449916710387 31.2191650984905),1.3310608378752065,0.3961904708602574,1.348969974483714,2.5229173495446857,very unhappy
170,新乐居委会,2,1,0,新桥镇,松江区,121.307302319246,31.0654868437429,0.5,POINT (121.307302319246 31.0654868437429),-0.9367397611366353,-0.814136180259632,-0.5227660583590759,-0.42920557533515186,very unhappy
171,新乐居委会,2,1,0,竖新镇,崇明区,121.577382193433,31.5660147735629,0.5,POINT (121.577382193433 31.5660147735629),-0.9401915124288907,-1.0562015104836098,-0.9238523511111022,-0.8509374217465573,very unhappy
172,新华里居委会,2,1,1,大桥街道,杨浦区,121.530219041975,31.2629813249282,0.8333333333333333,POINT (121.530219041975 31.2629813249282),1.2395894286304368,-0.3300055198116762,-0.12167976560704942,-0.42920557533515186,happy
173,新南社区居委会,1,1,0,西渡街道,奉贤区,121.441535245655,30.9934202309589,0.41666666666666663,POINT (121.441535245655 30.9934202309589),-0.938465636782763,-0.572070850035654,-0.9238523511111022,-0.8509374217465573,very unhappy
174,新城尚景居委会,2,1,1,淞南镇,宝山区,121.477997735507,31.3440198496364,0.8333333333333333,POINT (121.477997735507 31.3440198496364),-0.23258249751652,-0.20897285469968727,0.012015665310292719,-0.8509374217465573,happy
175,新宜居委会,2,1,0,甘泉路街道,普陀区,121.433434108597,31.2673962029724,0.5,POINT (121.433434108597 31.2673962029724),0.8063946414523755,0.15412514063627955,0.07886338076896379,-0.8509374217465573,very unhappy
176,新宝社区居委会,1,1,1,嘉定工业区,嘉定区,121.191829968378,31.4041773341167,0.75,POINT (121.191829968378 31.4041773341167),-0.9401915124288907,-1.0562015104836098,-0.8570046356524311,-0.8509374217465573,unhappy
177,新成居委会,4,1,1,南京西路街道,静安区,121.460286307267,31.2309321060319,1.0,POINT (121.460286307267 31.2309321060319),0.8184757709752697,2.2116804475400915,0.8810359662730166,0.4142581174876589,very happy
178,新曹杨居委会,2,1,1,长征镇,普陀区,121.388985967228,31.2375225915943,0.8333333333333333,POINT (121.388985967228 31.2375225915943),0.21269341918443524,0.03309247552429061,0.47994967352099016,-0.8509374217465573,happy
179,新桥居委会,3,1,1,南京东路街道,黄浦区,121.460605005416,31.2418957069214,0.9166666666666665,POINT (121.460605005416 31.2418957069214),0.5354321650103214,1.6065171219801466,1.415817689942385,0.8359899638990643,very happy
180,新桥居委会,3,1,1,天目西路街道,静安区,121.452173394486,31.2415690686576,0.9166666666666665,POINT (121.452173394486 31.2415690686576),0.6855833462234342,2.2116804475400915,1.282122259025043,1.2577218103104697,very happy
181,新桥居委会,3,1,1,张庙街道,宝山区,121.448258999952,31.3412723542357,0.9166666666666665,POINT (121.448258999952 31.3412723542357),-0.034106798211830644,-0.08794018958769832,-0.25537519652439156,-0.42920557533515186,very happy
182,新桥居委会,3,1,1,罗店镇,宝山区,121.340530951342,31.4122762480504,0.9166666666666665,POINT (121.340530951342 31.4122762480504),-0.9315621341982521,-0.814136180259632,0.7473405353556745,-0.42920557533515186,very happy
183,新桥居委会,3,1,1,南码头路街道,浦东新区,121.503794218228,31.191124067122,0.9166666666666665,POINT (121.503794218228 31.191124067122),-0.679584289863603,-0.08794018958769832,-0.6564614892764179,-0.8509374217465573,very happy
184,新桥居委会,2,1,0,南京东路街道,黄浦区,121.460605005416,31.2418957069214,0.5,POINT (121.460605005416 31.2418957069214),0.5354321650103214,1.6065171219801466,1.415817689942385,0.8359899638990643,very unhappy
185,新桥居委会,2,1,0,天目西路街道,静安区,121.452173394486,31.2415690686576,0.5,POINT (121.452173394486 31.2415690686576),0.6855833462234342,2.2116804475400915,1.282122259025043,1.2577218103104697,very unhappy
186,新桥居委会,2,1,0,张庙街道,宝山区,121.448258999952,31.3412723542357,0.5,POINT (121.448258999952 31.3412723542357),-0.034106798211830644,-0.08794018958769832,-0.25537519652439156,-0.42920557533515186,very unhappy
187,新桥居委会,2,1,0,罗店镇,宝山区,121.340530951342,31.4122762480504,0.5,POINT (121.340530951342 31.4122762480504),-0.9315621341982521,-0.814136180259632,0.7473405353556745,-0.42920557533515186,very unhappy
188,新桥居委会,2,1,0,南码头路街道,浦东新区,121.503794218228,31.191124067122,0.5,POINT (121.503794218228 31.191124067122),-0.679584289863603,-0.08794018958769832,-0.6564614892764179,-0.8509374217465573,very unhappy
189,新梅绿岛苑居委会,3,1,1,庙行镇,宝山区,121.42567355469,31.3364438995663,0.9166666666666665,POINT (121.42567355469 31.3364438995663),-0.595016383203344,-0.9351688453716208,-0.8570046356524311,-0.8509374217465573,very happy
190,新民居委会,4,1,0,横沙乡,崇明区,121.839592837839,31.3398847704658,0.6666666666666666,POINT (121.839592837839 31.3398847704658),-0.9401915124288907,-1.0562015104836098,-0.8570046356524311,-0.8509374217465573,very unhappy
191,新泾二村居委会,3,1,1,北新泾街道,长宁区,121.369467594154,31.217472588789,0.9166666666666665,POINT (121.369467594154 31.217472588789),0.03147647634102323,0.5172231359722463,0.279406527144977,-0.0074737289237464645,very happy
192,新泾五村居委会,3,1,1,北新泾街道,长宁区,121.361698883396,31.2206023778974,0.9166666666666665,POINT (121.361698883396 31.2206023778974),0.395636237673975,0.6382558010842353,0.012015665310292719,0.4142581174876589,very happy
193,新泾八村居委会,2,1,1,北新泾街道,长宁区,121.35832112422,31.2188030692063,0.8333333333333333,POINT (121.35832112422 31.2188030692063),0.31624595795209925,0.8803211313082131,0.14571109622763484,-0.0074737289237464645,happy
194,新灵居委会,2,1,1,甘泉路街道,普陀区,121.422301700463,31.2684750638731,0.8333333333333333,POINT (121.422301700463 31.2684750638731),1.3327867135213343,-0.4510381849236651,0.279406527144977,-0.0074737289237464645,happy
195,新理想居委会,3,1,0,共和新路街道,静安区,121.450147218319,31.2674345212861,0.5833333333333333,POINT (121.450147218319 31.2674345212861),1.0428396049718751,0.3961904708602574,0.6136451044383323,0.8359899638990643,very unhappy
196,新码居委会,3,1,1,小东门街道,黄浦区,121.50050746055,31.2222787726473,0.9166666666666665,POINT (121.50050746055 31.2222787726473),0.038379978925534165,0.3961904708602574,-0.38907062744173365,-0.42920557533515186,very happy
197,方舟园居委会,3,1,0,岳阳街道,松江区,121.234975414783,31.0202673583519,0.5833333333333333,POINT (121.234975414783 31.0202673583519),-0.9401915124288907,-0.20897285469968727,-0.25537519652439156,-0.42920557533515186,very unhappy
198,施镇居委会,3,1,0,祝桥镇,浦东新区,121.74454939304,31.1532084697951,0.5833333333333333,POINT (121.74454939304 31.1532084697951),-0.9401915124288907,-0.9351688453716208,-0.8570046356524311,-0.8509374217465573,very unhappy
199,昌里路七居委会,3,1,1,周家渡街道,浦东新区,121.509417025175,31.1769740899823,0.9166666666666665,POINT (121.509417025175 31.1769740899823),-0.6191786422491323,0.03309247552429061,-0.054832050148378345,-0.8509374217465573,very happy
200,明丰花苑居委会,3,1,1,三林镇,浦东新区,121.528102235729,31.1531680398732,0.9166666666666665,POINT (121.528102235729 31.1531680398732),-0.8159284659076939,-1.0562015104836098,-0.8570046356524311,-0.8509374217465573,very happy
201,春申居委会,1,1,0,新桥镇,松江区,121.350720170299,31.0753533652656,0.41666666666666663,POINT (121.350720170299 31.0753533652656),-0.9332880098443798,-0.693103515147643,-0.79015692019376,-0.8509374217465573,very unhappy
202,昭通路居委会,3,1,0,外滩街道,黄浦区,121.480756708955,31.235985645721,0.5833333333333333,POINT (121.480756708955 31.235985645721),1.4208063714738486,3.179941768436003,5.560376048379991,2.5229173495446857,very unhappy
203,晋阳居委会,2,1,1,提篮桥街道,虹口区,121.507830564429,31.25484361604,0.8333333333333333,POINT (121.507830564429 31.25484361604),0.8771555429436126,0.15412514063627955,-0.32222291198306263,0.4142581174876589,happy
204,晨星居委会,3,1,1,新桥镇,松江区,121.309775162593,31.0497091098875,0.9166666666666665,POINT (121.309775162593 31.0497091098875),-0.9401915124288907,-0.9351688453716208,-0.8570046356524311,-0.8509374217465573,very happy
205,景德路居委会,3,1,1,岳阳街道,松江区,121.234724339356,31.0097703895918,0.9166666666666665,POINT (121.234724339356 31.0097703895918),-0.9401915124288907,0.2751578057482685,0.279406527144977,1.2577218103104697,very happy
206,曙光第二社区居委会,4,1,1,南桥镇,奉贤区,121.469441863451,30.9217674187314,1.0,POINT (121.469441863451 30.9217674187314),-0.9401915124288907,-0.4510381849236651,-0.12167976560704942,-0.0074737289237464645,very happy
207,曹杨花苑居委会,3,1,1,真如镇街道,普陀区,121.399369632202,31.2564660865407,0.9166666666666665,POINT (121.399369632202 31.2564660865407),0.5906601856864089,-0.572070850035654,-0.12167976560704942,-0.42920557533515186,very happy
208,曹王社区居委会,3,1,0,徐行镇,嘉定区,121.300650320056,31.4332682196526,0.5833333333333333,POINT (121.300650320056 31.4332682196526),-0.9401915124288907,-1.0562015104836098,-0.5227660583590759,-0.8509374217465573,very unhappy
209,望族新苑居委会,2,1,1,梅陇镇,闵行区,121.394693391386,31.1407979082968,0.8333333333333333,POINT (121.394693391386 31.1407979082968),-0.3672007979144832,-0.08794018958769832,-0.18852748106572048,-0.42920557533515186,happy
210,未来街区居委会,3,1,1,长征镇,普陀区,121.360039545188,31.2378808581151,0.9166666666666665,POINT (121.360039545188 31.2378808581151),0.34213409264401523,0.5172231359722463,-0.5896137738177468,-0.42920557533515186,very happy
211,朱龙居委会,2,1,0,九亭镇,松江区,121.307939840551,31.1222499360857,0.5,POINT (121.307939840551 31.1222499360857),-0.9160292533831025,-0.9351688453716208,-0.6564614892764179,-0.8509374217465573,very unhappy
212,李园二村社区居委会,3,0,1,嘉定镇街道,嘉定区,121.247717585098,31.390366936485,0.5833333333333333,POINT (121.247717585098 31.390366936485),-0.9315621341982521,0.3961904708602574,0.8141882508143455,0.4142581174876589,very unhappy
213,松沪居委会,2,0,1,九亭镇,松江区,121.323049923115,31.1527351718906,0.5,POINT (121.323049923115 31.1527351718906),-0.7934920825080334,-0.693103515147643,-0.4559183429004047,-0.8509374217465573,very unhappy
214,果育居委会,2,1,1,豫园街道,黄浦区,121.48645308674,31.2250363251663,0.8333333333333333,POINT (121.48645308674 31.2250363251663),1.139488641155028,1.4854844568681578,3.5549445846198595,-0.42920557533515186,happy
215,柘林镇居委会,2,1,0,柘林镇,奉贤区,121.470372366791,30.830913116747,0.5,POINT (121.470372366791 30.830913116747),-0.9401915124288907,-0.9351688453716208,-0.8570046356524311,-0.8509374217465573,very unhappy
216,柳营新村第二居委会,2,1,1,共和新路街道,静安区,121.45735444725,31.2697782255846,0.8333333333333333,POINT (121.45735444725 31.2697782255846),1.087712371771196,0.6382558010842353,0.7473405353556745,0.8359899638990643,happy
217,柳营桥居委会,2,1,1,共和新路街道,静安区,121.454197480629,31.2669203923622,0.8333333333333333,POINT (121.454197480629 31.2669203923622),1.1256816359860062,0.5172231359722463,0.47994967352099016,0.8359899638990643,happy
218,柿子湾居委会,3,1,1,徐家汇街道,徐汇区,121.423356142971,31.1902461453433,0.9166666666666665,POINT (121.423356142971 31.1902461453433),0.4577677609345734,2.2116804475400915,1.2152745435663719,2.9446491959560914,very happy
219,桃园社区居委会,3,1,1,嘉定镇街道,嘉定区,121.241447055837,31.3916518842271,0.9166666666666665,POINT (121.241447055837 31.3916518842271),-0.9367397611366353,0.03309247552429061,0.7473405353556745,-0.42920557533515186,very happy
220,桃园社区居委会,3,1,1,嘉定镇街道,嘉定区,121.241447055837,31.3916518842271,0.9166666666666665,POINT (121.241447055837 31.3916518842271),-0.9367397611366353,0.03309247552429061,0.7473405353556745,-0.42920557533515186,very happy
221,桑城居委会,3,1,0,五里桥街道,黄浦区,121.477681038349,31.2069590518188,0.5833333333333333,POINT (121.477681038349 31.2069590518188),2.1474000184936246,0.8803211313082131,-0.054832050148378345,0.8359899638990643,very unhappy
222,梅陇第三居委会,2,1,1,梅陇镇,闵行区,121.408612666341,31.1379846157974,0.8333333333333333,POINT (121.408612666341 31.1379846157974),0.09015624830936617,-0.08794018958769832,0.07886338076896379,-0.42920557533515186,happy
223,梓树园居委会,3,1,1,漕河泾街道,徐汇区,121.425737286047,31.1638998530958,0.9166666666666665,POINT (121.425737286047 31.1638998530958),0.5699496779328761,0.3961904708602574,-0.32222291198306263,0.4142581174876589,very happy
224,梦湖苑居委会,2,1,1,凉城新村街道,虹口区,121.45846668379,31.2861395259184,0.8333333333333333,POINT (121.45846668379 31.2861395259184),0.21787104612281843,-0.3300055198116762,-0.5896137738177468,-0.42920557533515186,happy
225,梧州居委会,3,1,1,嘉兴路街道,虹口区,121.488322299734,31.2584121385094,0.9166666666666665,POINT (121.488322299734 31.2584121385094),1.5692316770408337,3.058909103324014,0.6136451044383323,-0.42920557533515186,very happy
226,欧三居委会,2,1,1,欧阳路街道,虹口区,121.482185140831,31.2705862367654,0.8333333333333333,POINT (121.482185140831 31.2705862367654),1.8401941534828878,2.937876438212025,0.47994967352099016,0.4142581174876589,happy
227,欧四居委会,2,1,1,欧阳路街道,虹口区,121.484418824769,31.2735925894265,0.8333333333333333,POINT (121.484418824769 31.2735925894265),2.452880007858233,1.7275497870921357,0.14571109622763484,1.2577218103104697,happy
228,民乐社区居委会,4,1,0,嘉定工业区,嘉定区,121.249384334619,31.3722144402442,0.6666666666666666,POINT (121.249384334619 31.3722144402442),-0.9229327559676134,-0.693103515147643,-0.4559183429004047,-0.42920557533515186,very unhappy
229,民乐社区居委会,4,1,0,盈浦街道,青浦区,121.089975787752,31.1629426938503,0.6666666666666666,POINT (121.089975787752 31.1629426938503),-0.9401915124288907,-1.0562015104836098,-0.8570046356524311,-0.8509374217465573,very unhappy
230,民治路居委会,2,1,1,长白新村街道,杨浦区,121.547859914803,31.3008015419576,0.8333333333333333,POINT (121.547859914803 31.3008015419576),0.22822629999958485,-0.4510381849236651,-0.4559183429004047,-0.0074737289237464645,happy
231,水岸社区居委会,2,1,1,西渡街道,奉贤区,121.428741469543,30.9865193875597,0.8333333333333333,POINT (121.428741469543 30.9865193875597),-0.9401915124288907,-0.20897285469968727,-0.723309204735089,-0.8509374217465573,happy
232,水清一村居委会,2,1,0,莘庄镇,闵行区,121.375115956236,31.1154761668916,0.5,POINT (121.375115956236 31.1154761668916),-0.5812093780343222,0.5172231359722463,0.34625424260364807,1.2577218103104697,very unhappy
233,永乐居委会,3,1,1,江宁路街道,静安区,121.437756732387,31.2376073167243,0.9166666666666665,POINT (121.437756732387 31.2376073167243),0.9789822060651489,2.4537457777640697,0.8141882508143455,0.8359899638990643,very happy
234,永乐居委会,3,1,1,共和新路街道,静安区,121.441064312068,31.268430402641,0.9166666666666665,POINT (121.441064312068 31.268430402641),0.6182741960244525,-0.08794018958769832,0.21255881168630592,0.4142581174876589,very happy
235,永泰路第一居委会,3,1,1,三林镇,浦东新区,121.535757546473,31.159006323483,0.9166666666666665,POINT (121.535757546473 31.159006323483),-0.7848627042773947,-0.9351688453716208,-0.79015692019376,-0.8509374217465573,very happy
236,永美居委会,3,1,1,四川北路街道,虹口区,121.480142927054,31.2619176355904,0.9166666666666665,POINT (121.480142927054 31.2619176355904),1.7504486198842457,3.9061377591079367,1.348969974483714,0.4142581174876589,very happy
237,汇佳苑居委会,3,1,1,沪东新村街道,浦东新区,121.575667476772,31.2824489735413,0.9166666666666665,POINT (121.575667476772 31.2824489735413),-0.8487201031841208,-0.814136180259632,-0.4559183429004047,-0.8509374217465573,very happy
238,汇成三村居委会,2,1,0,长桥街道,徐汇区,121.429095702604,31.1461600944128,0.5,POINT (121.429095702604 31.1461600944128),0.0711716162019611,-0.572070850035654,-0.5227660583590759,1.2577218103104697,very unhappy
239,汇腾社区居委会,2,1,1,周浦镇,浦东新区,121.582565223806,31.0940620975877,0.8333333333333333,POINT (121.582565223806 31.0940620975877),-0.9246586316137411,-1.0562015104836098,-0.8570046356524311,-0.8509374217465573,happy
240,江中居委会,3,1,1,方松街道,松江区,121.221493510716,31.0323458559765,0.9166666666666665,POINT (121.221493510716 31.0323458559765),-0.9401915124288907,-0.3300055198116762,-0.5896137738177468,0.4142581174876589,very happy
241,江安社区居委会,2,1,1,江桥镇,嘉定区,121.337258533354,31.2557442591902,0.8333333333333333,POINT (121.337258533354 31.2557442591902),-0.13075583439498373,-0.4510381849236651,-0.25537519652439156,-0.0074737289237464645,happy
242,江海第二居委会,2,0,1,南桥镇,奉贤区,121.449386069011,30.9075720564053,0.5,POINT (121.449386069011 30.9075720564053),-0.9401915124288907,0.3961904708602574,0.34625424260364807,-0.8509374217465573,very unhappy
243,汪家井居委会,2,1,1,甘泉路街道,普陀区,121.429311199951,31.2603296657815,0.8333333333333333,POINT (121.429311199951 31.2603296657815),1.068727739663791,0.6382558010842353,0.279406527144977,0.4142581174876589,happy
244,沈家滩居委会,1,1,1,定海路街道,杨浦区,121.55128878335,31.2691663781258,0.75,POINT (121.55128878335 31.2691663781258),0.41634674542750777,-0.20897285469968727,-0.5896137738177468,-0.8509374217465573,unhappy
245,沪东新村一居委会,2,1,1,沪东新村街道,浦东新区,121.579304787485,31.2717919425441,0.8333333333333333,POINT (121.579304787485 31.2717919425441),-0.7969438338002889,-0.20897285469968727,-0.5227660583590759,-0.0074737289237464645,happy
246,沪东新村二居委会,2,1,1,沪东新村街道,浦东新区,121.575916377638,31.2718783772853,0.8333333333333333,POINT (121.575916377638 31.2718783772853),-0.8383648493073544,-0.3300055198116762,-0.5227660583590759,-0.0074737289237464645,happy
247,河南居委会,2,1,1,虹桥镇,闵行区,121.38794830517,31.176478103082,0.8333333333333333,POINT (121.38794830517 31.176478103082),-0.31542452853065117,-0.08794018958769832,-0.8570046356524311,-0.0074737289237464645,happy
248,泗塘五村一居委会,2,1,1,张庙街道,宝山区,121.456767705265,31.3370497953118,0.8333333333333333,POINT (121.456767705265 31.3370497953118),-0.10314182405693997,0.03309247552429061,-0.12167976560704942,-0.42920557533515186,happy
249,泾泰居委会,2,1,0,长征镇,普陀区,121.361206873298,31.241928113092,0.5,POINT (121.361206873298 31.241928113092),0.5302545380719382,1.0013537964202022,-0.5227660583590759,-0.42920557533515186,very unhappy
250,洛善居委会,3,1,1,共和新路街道,静安区,121.447726309021,31.2682404577309,0.9166666666666665,POINT (121.447726309021 31.2682404577309),0.8892366724665067,0.03309247552429061,0.47994967352099016,0.8359899638990643,very happy
251,济阳一村居委会,2,1,1,上钢新村街道,浦东新区,121.473393775002,31.1659252072825,0.8333333333333333,POINT (121.473393775002 31.1659252072825),-0.8746082378760368,-1.0562015104836098,-0.79015692019376,-0.8509374217465573,happy
252,浦航新城第五居委会,3,1,1,浦江镇,闵行区,121.53109654377,31.0504155426432,0.9166666666666665,POINT (121.53109654377 31.0504155426432),-0.9350138854905075,-0.9351688453716208,-0.79015692019376,-0.8509374217465573,very happy
253,海棠苑居委会,3,1,1,真如镇街道,普陀区,121.388639087923,31.2505003267287,0.9166666666666665,POINT (121.388639087923 31.2505003267287),0.499188776441639,-0.08794018958769832,0.14571109622763484,0.4142581174876589,very happy
254,海棠苑居委会,3,1,1,桃浦镇,普陀区,121.347699290889,31.2856322525265,0.9166666666666665,POINT (121.347699290889 31.2856322525265),0.060816362325194696,-0.572070850035654,-0.32222291198306263,-0.8509374217465573,very happy
255,海阳路居委会,2,1,1,三林镇,浦东新区,121.490766096777,31.1562501442288,0.8333333333333333,POINT (121.490766096777 31.1562501442288),-0.6502444038794315,-0.572070850035654,-0.12167976560704942,-0.8509374217465573,happy
256,海高新村居委会,1,1,1,高桥镇,浦东新区,121.574844446913,31.3568227745514,0.75,POINT (121.574844446913 31.3568227745514),-0.9177551290292302,-0.814136180259632,-0.5896137738177468,0.4142581174876589,unhappy
257,海高新村居委会,3,1,1,高桥镇,浦东新区,121.574844446913,31.3568227745514,0.9166666666666665,POINT (121.574844446913 31.3568227745514),-0.9177551290292302,-0.814136180259632,-0.5896137738177468,0.4142581174876589,very happy
258,润峰苑居委会,3,1,1,方松街道,松江区,121.182533502818,31.0221905900237,0.9166666666666665,POINT (121.182533502818 31.0221905900237),-0.9401915124288907,-1.0562015104836098,-0.6564614892764179,-0.8509374217465573,very happy
259,淞南九村一居委会,2,1,0,淞南镇,宝山区,121.46930527172,31.3425595295986,0.5,POINT (121.46930527172 31.3425595295986),-0.5294331086504901,-0.4510381849236651,0.012015665310292719,-0.8509374217465573,very unhappy
260,淞南五村一居委会,3,1,0,淞南镇,宝山区,121.477428365726,31.3414919174181,0.5833333333333333,POINT (121.477428365726 31.3414919174181),-0.08588306759566265,-0.08794018958769832,-0.054832050148378345,-0.8509374217465573,very unhappy
261,漕宝路第二居委会,2,0,1,七宝镇,闵行区,121.364710504286,31.1587360142556,0.5,POINT (121.364710504286 31.1587360142556),-0.7848627042773947,-0.814136180259632,1.0147313971903587,-0.8509374217465573,very unhappy
262,潘东居委会,2,1,1,华阳路街道,长宁区,121.419703628319,31.2151483395243,0.8333333333333333,POINT (121.419703628319 31.2151483395243),0.7787806311143318,1.2434191266441799,1.7500562672357405,2.9446491959560914,happy
263,潼港一村居委会,3,1,1,高桥镇,浦东新区,121.572080012782,31.3446845331647,0.9166666666666665,POINT (121.572080012782 31.3446845331647),-0.8659788596453981,-0.3300055198116762,-0.054832050148378345,1.2577218103104697,very happy
264,瀛兴居委会,4,1,0,竖新镇,崇明区,121.592313500667,31.6145890791227,0.6666666666666666,POINT (121.592313500667 31.6145890791227),-0.9401915124288907,-1.0562015104836098,-0.79015692019376,-0.8509374217465573,very unhappy
265,灵山路三居委会,3,1,1,金杨新村街道,浦东新区,121.573350620834,31.2527470409432,0.9166666666666665,POINT (121.573350620834 31.2527470409432),-0.5449659894656398,-0.3300055198116762,-0.32222291198306263,-0.42920557533515186,very happy
266,牛车泾居委会,2,1,0,九亭镇,松江区,121.325532968371,31.1219509807531,0.5,POINT (121.325532968371 31.1219509807531),-0.8832376161066755,-0.693103515147643,-0.79015692019376,-0.8509374217465573,very unhappy
267,牡丹第二居委会,3,1,1,花木街道,浦东新区,121.547792739943,31.2171633407156,0.9166666666666665,POINT (121.547792739943 31.2171633407156),-0.6623255334023256,-0.693103515147643,-0.4559183429004047,-0.8509374217465573,very happy
268,牡丹第四居委会,3,1,1,花木街道,浦东新区,121.539261535391,31.2088592680408,0.9166666666666665,POINT (121.539261535391 31.2088592680408),-0.5449659894656398,-0.814136180259632,-0.32222291198306263,-0.8509374217465573,very happy
269,玉三居委会,3,1,1,曲阳路街道,虹口区,121.489141469703,31.2797424359646,0.9166666666666665,POINT (121.489141469703 31.2797424359646),2.047299231018216,1.364451791756169,-0.38907062744173365,2.1011855031332805,very happy
270,玉兰居委会,3,1,1,川沙新镇,浦东新区,121.680028795492,31.2013544030833,0.9166666666666665,POINT (121.680028795492 31.2013544030833),-0.9367397611366353,-0.693103515147643,-0.38907062744173365,-0.8509374217465573,very happy
271,瓶安路居委会,3,1,1,莘庄工业区,闵行区,121.396052462151,31.0562047574436,0.9166666666666665,POINT (121.396052462151 31.0562047574436),-0.9177551290292302,-0.9351688453716208,-0.6564614892764179,-0.8509374217465573,very happy
272,申莘新村第一居委会,3,1,1,莘庄工业区,闵行区,121.38552142887,31.084233099378,0.9166666666666665,POINT (121.38552142887 31.084233099378),-0.8677047352915259,-0.9351688453716208,-0.723309204735089,-0.8509374217465573,very happy
273,申莘新村第三居委会,3,1,1,莘庄工业区,闵行区,121.374912898311,31.0924369138325,0.9166666666666665,POINT (121.374912898311 31.0924369138325),-0.8935928699834419,-0.9351688453716208,-0.6564614892764179,-0.8509374217465573,very happy
274,申莘新村第二居委会,3,1,0,莘庄工业区,闵行区,121.378811400925,31.082132393695,0.5833333333333333,POINT (121.378811400925 31.082132393695),-0.912577502090847,-0.814136180259632,-0.8570046356524311,-0.8509374217465573,very unhappy
275,电机新村第二居委会,2,1,1,江川路街道,闵行区,121.40159250449,31.0069610658006,0.8333333333333333,POINT (121.40159250449 31.0069610658006),-0.9194810046753579,-0.572070850035654,-0.6564614892764179,0.4142581174876589,happy
276,界泾港社区居委会,2,1,1,夏阳街道,青浦区,121.117752807845,31.1539542901584,0.8333333333333333,POINT (121.117752807845 31.1539542901584),-0.9401915124288907,0.2751578057482685,1.1484268281077008,-0.42920557533515186,happy
277,番禺居委会,3,1,1,徐家汇街道,徐汇区,121.42265234343,31.2000682808265,0.9166666666666665,POINT (121.42265234343 31.2000682808265),0.7339078643150108,0.3961904708602574,0.6136451044383323,1.679453656721875,very happy
278,番禺居委会,3,1,1,新华路街道,长宁区,121.423473587236,31.2058928812515,0.9166666666666665,POINT (121.423473587236 31.2058928812515),0.8305569004981638,1.0013537964202022,0.34625424260364807,1.679453656721875,very happy
279,白渡居委会,2,1,1,小东门街道,黄浦区,121.495701024882,31.221563299007,0.8333333333333333,POINT (121.495701024882 31.221563299007),0.5026405277338944,0.7592884661962241,0.012015665310292719,-0.8509374217465573,happy
280,盛达家园居委会,2,1,1,淞南镇,宝山区,121.460636124657,31.3368873948374,0.8333333333333333,POINT (121.460636124657 31.3368873948374),-0.25847063220843597,-0.08794018958769832,-0.12167976560704942,-0.8509374217465573,happy
281,真光新村第八居委会,3,1,1,真如镇街道,普陀区,121.376851546162,31.2519254284158,0.9166666666666665,POINT (121.376851546162 31.2519254284158),0.5682238022867483,-0.572070850035654,0.6804928198970034,-0.42920557533515186,very happy
282,真北新村第三居委会,3,1,1,真如镇街道,普陀区,121.391829787214,31.259875633154,0.9166666666666665,POINT (121.391829787214 31.259875633154),0.8081205170985033,-0.20897285469968727,-0.4559183429004047,-0.8509374217465573,very happy
283,真如西村居委会,3,1,1,真如镇街道,普陀区,121.39447074263,31.2483672832236,0.9166666666666665,POINT (121.39447074263 31.2483672832236),0.3611187247514203,0.2751578057482685,0.14571109622763484,-0.0074737289237464645,very happy
284,真西新村第二居委会,3,1,1,真如镇街道,普陀区,121.386647521266,31.2504619958244,0.9166666666666665,POINT (121.386647521266 31.2504619958244),0.5302545380719382,0.03309247552429061,0.8141882508143455,0.4142581174876589,very happy
285,瞿中居委会,2,1,1,五里桥街道,黄浦区,121.469408242296,31.201687651364,0.8333333333333333,POINT (121.469408242296 31.201687651364),2.0058782155111503,0.6382558010842353,0.07886338076896379,1.2577218103104697,happy
286,瞿西居委会,4,1,1,五里桥街道,黄浦区,121.466756238709,31.1983983647927,1.0,POINT (121.466756238709 31.1983983647927),1.7590779981148843,0.2751578057482685,0.012015665310292719,0.8359899638990643,very happy
287,知音苑居委会,3,1,1,长寿路街道,普陀区,121.422274915954,31.2341052964223,0.9166666666666665,POINT (121.422274915954 31.2341052964223),0.7546183720685435,0.8803211313082131,0.14571109622763484,2.9446491959560914,very happy
288,石笋居委会,2,1,1,新场镇,浦东新区,121.63588449907,31.0243882075498,0.8333333333333333,POINT (121.63588449907 31.0243882075498),-0.9401915124288907,-0.693103515147643,-0.723309204735089,-0.8509374217465573,happy
289,福地苑第一居委会,2,1,1,杨行镇,宝山区,121.445107825865,31.3967744720642,0.8333333333333333,POINT (121.445107825865 31.3967744720642),-0.9004963725679528,-0.9351688453716208,-0.9238523511111022,-0.8509374217465573,happy
290,秋水云庐居委会,2,1,1,长寿路街道,普陀区,121.440301075434,31.2468691511904,0.8333333333333333,POINT (121.440301075434 31.2468691511904),0.9686269521883825,2.937876438212025,0.7473405353556745,2.1011855031332805,happy
291,第一社区居委会,2,1,0,奉城镇,奉贤区,121.642099536564,30.919935171471,0.5,POINT (121.642099536564 30.919935171471),-0.9401915124288907,-0.814136180259632,-0.6564614892764179,-0.8509374217465573,very unhappy
292,第九社区居委会,4,1,1,奉浦街道,奉贤区,121.461949479285,30.9293419136984,1.0,POINT (121.461949479285 30.9293419136984),-0.9401915124288907,-0.814136180259632,-0.4559183429004047,-0.42920557533515186,very happy
293,第四社区居委会,4,1,1,奉浦街道,奉贤区,121.464948639168,30.9272309710325,1.0,POINT (121.464948639168 30.9272309710325),-0.9401915124288907,-0.814136180259632,-0.38907062744173365,-0.0074737289237464645,very happy
294,第四社区居委会,4,1,1,奉城镇,奉贤区,121.63640729476,30.9094011335555,1.0,POINT (121.63640729476 30.9094011335555),-0.9401915124288907,-0.814136180259632,-0.38907062744173365,-0.8509374217465573,very happy
295,红旗新村第七居委会,2,1,1,江川路街道,闵行区,121.396799623403,31.0174428764876,0.8333333333333333,POINT (121.396799623403 31.0174428764876),-0.9194810046753579,-0.9351688453716208,-0.5896137738177468,-0.0074737289237464645,happy
296,红春公寓居委会,3,1,1,虹桥镇,闵行区,121.381756553822,31.1882830737049,0.9166666666666665,POINT (121.381756553822 31.1882830737049),-0.45349458022086986,-0.572070850035654,-0.25537519652439156,0.4142581174876589,very happy
297,红枫苑居委会,3,1,1,东明路街道,浦东新区,121.522588997684,31.141205938803,0.9166666666666665,POINT (121.522588997684 31.141205938803),-0.7555228182932232,-0.9351688453716208,-0.79015692019376,-0.8509374217465573,very happy
298,红菱居委会,1,0,1,朱泾镇,金山区,121.156129964226,30.906708899696,0.41666666666666663,POINT (121.156129964226 30.906708899696),-0.9401915124288907,-0.4510381849236651,-0.5227660583590759,-0.0074737289237464645,very unhappy
299,绿园居委会,3,1,1,彭浦镇,静安区,121.432446903901,31.2727770383297,0.9166666666666665,POINT (121.432446903901 31.2727770383297),0.7028421026847116,-0.20897285469968727,-0.4559183429004047,-0.8509374217465573,very happy
300,绿地居委会,3,1,1,高行镇,浦东新区,121.609735548656,31.2925200935275,0.9166666666666665,POINT (121.609735548656 31.2925200935275),-0.8608012327070149,0.5172231359722463,-0.6564614892764179,-0.0074737289237464645,very happy
301,绿地居委会,3,1,1,漕泾镇,金山区,121.400061649725,30.8005748229697,0.9166666666666665,POINT (121.400061649725 30.8005748229697),-0.9401915124288907,-0.9351688453716208,-0.9238523511111022,-0.8509374217465573,very happy
302,绿川新村四居委会,2,1,1,北蔡镇,浦东新区,121.542740575317,31.1726301864339,0.8333333333333333,POINT (121.542740575317 31.1726301864339),-0.7192794297245408,-0.693103515147643,-0.8570046356524311,-0.8509374217465573,happy
303,绿梅二村居委会,3,1,1,莘庄镇,闵行区,121.36603569669,31.1175151188277,0.9166666666666665,POINT (121.36603569669 31.1175151188277),-0.809024963323183,-0.20897285469968727,0.012015665310292719,-0.0074737289237464645,very happy
304,绿波苑居委会,2,1,1,唐镇,浦东新区,121.660783946721,31.2104870022733,0.8333333333333333,POINT (121.660783946721 31.2104870022733),-0.8987704969218251,-1.0562015104836098,-0.723309204735089,-0.8509374217465573,happy
305,罗山五村居委会,2,1,1,金杨新村街道,浦东新区,121.551500067374,31.2520009381927,0.8333333333333333,POINT (121.551500067374 31.2520009381927),-0.8021214607386721,-0.20897285469968727,-0.79015692019376,-0.42920557533515186,happy
306,罗秀苑居委会,3,1,1,梅陇镇,闵行区,121.405713176521,31.1287127152197,0.9166666666666665,POINT (121.405713176521 31.1287127152197),-0.08415719194953492,-0.20897285469968727,-0.5896137738177468,-0.8509374217465573,very happy
307,罗阳新村第六居委会,3,1,1,梅陇镇,闵行区,121.399848013075,31.1252019858829,0.9166666666666665,POINT (121.399848013075 31.1252019858829),-0.2084202384707317,0.03309247552429061,-0.5896137738177468,-0.42920557533515186,very happy
308,羽洋居委会,3,1,1,洋泾街道,浦东新区,121.549324419386,31.2391086332568,0.9166666666666665,POINT (121.549324419386 31.2391086332568),-0.7210053053706685,-0.4510381849236651,-0.5896137738177468,-0.42920557533515186,very happy
309,胶东路一居委会,2,1,1,浦兴路街道,浦东新区,121.596342904101,31.2600710018753,0.8333333333333333,POINT (121.596342904101 31.2600710018753),-0.6882136680942417,-0.572070850035654,-0.5896137738177468,-0.8509374217465573,happy
310,航华三村第一居委会,3,1,1,七宝镇,闵行区,121.344081787744,31.168550777996,0.9166666666666665,POINT (121.344081787744 31.168550777996),-0.5415142381733843,-0.3300055198116762,-0.25537519652439156,-0.0074737289237464645,very happy
311,艺康苑居委会,1,1,0,彭浦新村街道,静安区,121.440844564525,31.3204542215851,0.41666666666666663,POINT (121.440844564525 31.3204542215851),1.2516705581533307,-0.20897285469968727,1.1484268281077008,0.8359899638990643,very unhappy
312,芙蓉江路第一居委会,2,1,1,仙霞新村街道,长宁区,121.39197295209,31.2100072436394,0.8333333333333333,POINT (121.39197295209 31.2100072436394),0.03320235198715096,0.03309247552429061,1.282122259025043,1.679453656721875,happy
313,芝巷居委会,2,1,1,长征镇,普陀区,121.385799277114,31.2394323550192,0.8333333333333333,POINT (121.385799277114 31.2394323550192),0.37319985427431446,0.03309247552429061,0.47994967352099016,-0.8509374217465573,happy
314,茂兴路居委会,2,1,1,塘桥街道,浦东新区,121.505756508356,31.2103320023201,0.8333333333333333,POINT (121.505756508356 31.2103320023201),-0.3672007979144832,-0.572070850035654,-0.32222291198306263,0.4142581174876589,happy
315,莘松居委会,2,1,1,新桥镇,松江区,121.323093905359,31.0954404354278,0.8333333333333333,POINT (121.323093905359 31.0954404354278),-0.9332880098443798,-0.693103515147643,-0.9238523511111022,-0.8509374217465573,happy
316,莲溪一居委会,2,1,0,北蔡镇,浦东新区,121.557838602469,31.188224824616,0.5,POINT (121.557838602469 31.188224824616),-0.7279088079551795,-0.08794018958769832,-0.32222291198306263,-0.8509374217465573,very unhappy
317,菊泉居委会,3,1,1,顾村镇,宝山区,121.369355967603,31.358504421342,0.9166666666666665,POINT (121.369355967603 31.358504421342),-0.6588737821100702,-0.693103515147643,-0.5227660583590759,-0.8509374217465573,very happy
318,蓝天居委会,3,1,1,五角场街道,杨浦区,121.511005990534,31.2991096887611,0.9166666666666665,POINT (121.511005990534 31.2991096887611),3.296833198814695,0.6382558010842353,1.6163608363183983,1.2577218103104697,very happy
319,蓝天居委会,3,1,1,花木街道,浦东新区,121.568416056056,31.239335319969,0.9166666666666665,POINT (121.568416056056 31.239335319969),-0.717553554078413,-0.572070850035654,-0.79015692019376,0.4142581174876589,very happy
320,虬江居委会,3,1,1,五角场镇,杨浦区,121.549675649611,31.3112655577593,0.9166666666666665,POINT (121.549675649611 31.3112655577593),-0.41207356471380424,-0.572070850035654,-0.6564614892764179,-0.8509374217465573,very happy
321,虹二居委会,3,1,1,徐家汇街道,徐汇区,121.421306258876,31.1978573551328,0.9166666666666665,POINT (121.421306258876 31.1978573551328),0.6786798436389233,0.3961904708602574,0.41310195806231914,2.1011855031332805,very happy
322,虹仙居委会,3,1,1,仙霞新村街道,长宁区,121.379974957278,31.2070149150063,0.9166666666666665,POINT (121.379974957278 31.2070149150063),-0.41552531600605974,-0.20897285469968727,-0.32222291198306263,-0.0074737289237464645,very happy
323,虹仪居委会,3,1,1,欧阳路街道,虹口区,121.484281643083,31.2721365042962,0.9166666666666665,POINT (121.484281643083 31.2721365042962),2.1681105262471574,2.2116804475400915,0.07886338076896379,0.8359899638990643,very happy
324,虹华苑居委会,2,1,1,虹桥镇,闵行区,121.377224136184,31.1878707354461,0.8333333333333333,POINT (121.377224136184 31.1878707354461),-0.3758301761451219,-0.572070850035654,0.14571109622763484,-0.0074737289237464645,happy
325,虹南居委会,2,1,1,虹梅路街道,徐汇区,121.403402664401,31.1820388271302,0.8333333333333333,POINT (121.403402664401 31.1820388271302),-0.32060215546903437,-0.693103515147643,-0.6564614892764179,-0.42920557533515186,happy
326,虹南居委会,2,1,1,虹桥街道,长宁区,121.413602092462,31.1934427010198,0.8333333333333333,POINT (121.413602092462 31.1934427010198),0.18680528449251924,0.2751578057482685,-0.32222291198306263,1.2577218103104697,happy
327,虹南居委会,2,1,1,北蔡镇,浦东新区,121.551489454474,31.1874386939406,0.8333333333333333,POINT (121.551489454474 31.1874386939406),-0.7658780721699896,-0.3300055198116762,-0.12167976560704942,-0.8509374217465573,happy
328,虹叶居委会,3,1,1,嘉兴路街道,虹口区,121.499470893866,31.2646606856421,0.9166666666666665,POINT (121.499470893866 31.2646606856421),1.5882163091482389,0.3961904708602574,0.07886338076896379,0.4142581174876589,very happy
329,虹桥居委会,2,1,1,虹桥街道,长宁区,121.406991489965,31.1997558788307,0.8333333333333333,POINT (121.406991489965 31.1997558788307),0.0038624660029794944,-0.08794018958769832,0.279406527144977,0.4142581174876589,happy
330,虹桥居委会,2,1,1,虹桥镇,闵行区,121.388636106671,31.1821196258201,0.8333333333333333,POINT (121.388636106671 31.1821196258201),-0.32923153369967306,-0.4510381849236651,-0.723309204735089,0.4142581174876589,happy
331,虹纺居委会,2,1,0,仙霞新村街道,长宁区,121.384202481359,31.2045261950279,0.5,POINT (121.384202481359 31.2045261950279),-0.32923153369967306,-0.08794018958769832,-0.18852748106572048,-0.42920557533515186,very unhappy
332,西安居委会,3,1,1,提篮桥街道,虹口区,121.491387458164,31.2524056214223,0.9166666666666665,POINT (121.491387458164 31.2524056214223),1.030758475448981,0.5172231359722463,0.07886338076896379,-0.42920557533515186,very happy
333,西成居委会,4,1,1,淮海中路街道,黄浦区,121.47001245541,31.2192640230163,1.0,POINT (121.47001245541 31.2192640230163),1.0445654806180027,1.122386461532191,1.8169039826944116,-0.0074737289237464645,very happy
334,西林塔居委会,2,1,1,岳阳街道,松江区,121.221728019732,31.0094402862402,0.8333333333333333,POINT (121.221728019732 31.0094402862402),-0.9401915124288907,0.3961904708602574,0.6804928198970034,-0.0074737289237464645,happy
335,西街居委会,2,1,1,漕河泾街道,徐汇区,121.422013246514,31.1667860392443,0.8333333333333333,POINT (121.422013246514 31.1667860392443),0.36284460039754807,0.2751578057482685,-0.25537519652439156,0.8359899638990643,happy
336,西街居委会,2,1,1,莘庄镇,闵行区,121.371974656705,31.1055823383542,0.8333333333333333,POINT (121.371974656705 31.1055823383542),-0.7002947976171358,-0.4510381849236651,0.21255881168630592,1.2577218103104697,happy
337,西街居委会,2,1,1,大场镇,宝山区,121.411306443437,31.303954335724,0.8333333333333333,POINT (121.411306443437 31.303954335724),-0.3775560517912496,-0.814136180259632,-0.5227660583590759,-0.42920557533515186,happy
338,西街居委会,2,1,1,高桥镇,浦东新区,121.574903545861,31.3442102055366,0.8333333333333333,POINT (121.574903545861 31.3442102055366),-0.8642529839992704,-0.4510381849236651,-0.12167976560704942,1.2577218103104697,happy
339,解放居委会,2,1,1,张堰镇,金山区,121.279157750729,30.8035292568697,0.8333333333333333,POINT (121.279157750729 30.8035292568697),-0.9401915124288907,-0.814136180259632,-0.5896137738177468,-0.8509374217465573,happy
340,谈家宅居委会,2,1,1,共和新路街道,静安区,121.446236546079,31.2674430756374,0.8333333333333333,POINT (121.446236546079 31.2674430756374),0.8271051492059084,0.15412514063627955,0.8810359662730166,0.4142581174876589,happy
341,谈家桥八十弄居委会,2,1,1,共和新路街道,静安区,121.448308589469,31.2620583381218,0.8333333333333333,POINT (121.448308589469 31.2620583381218),0.8840590455281235,0.3961904708602574,0.7473405353556745,0.4142581174876589,happy
342,豪世盛地园居委会,3,1,1,七宝镇,闵行区,121.339289444452,31.1521117807341,0.9166666666666665,POINT (121.339289444452 31.1521117807341),-0.5639506215730448,0.5172231359722463,0.012015665310292719,-0.0074737289237464645,very happy
343,贝港第二居委会,2,1,0,南桥镇,奉贤区,121.442863429203,30.9154054886724,0.5,POINT (121.442863429203 30.9154054886724),-0.9401915124288907,-0.20897285469968727,-0.4559183429004047,-0.8509374217465573,very unhappy
344,赵巷居委会,2,0,0,赵巷镇,青浦区,121.193317537874,31.1536998431732,0.16666666666666666,POINT (121.193317537874 31.1536998431732),-0.9332880098443798,-0.9351688453716208,-0.38907062744173365,-0.8509374217465573,very unhappy
345,车站村村委会,2,1,0,大团镇,浦东新区,121.755895752586,30.9735519658506,0.5,POINT (121.755895752586 30.9735519658506),-0.9401915124288907,-0.9351688453716208,-0.9238523511111022,-0.8509374217465573,very unhappy
346,通河七村一居委会,3,1,0,张庙街道,宝山区,121.448384208064,31.331089917066,0.5833333333333333,POINT (121.448384208064 31.331089917066),1.0031444651109371,0.5172231359722463,0.21255881168630592,0.4142581174876589,very unhappy
347,通河七村二居委会,3,1,1,张庙街道,宝山区,121.44855354411,31.3293498925835,0.9166666666666665,POINT (121.44855354411 31.3293498925835),1.056646610140897,0.7592884661962241,0.14571109622763484,0.8359899638990643,very happy
348,通河三村一居委会,2,1,0,张庙街道,宝山区,121.439192054869,31.3354491000959,0.5,POINT (121.439192054869 31.3354491000959),0.6061930665015585,-0.693103515147643,-0.12167976560704942,-0.8509374217465573,very unhappy
349,通海居委会,2,1,1,嘉兴路街道,虹口区,121.490457421572,31.2615670070118,0.8333333333333333,POINT (121.490457421572 31.2615670070118),1.4518721331041478,1.9696151173161138,0.07886338076896379,-0.42920557533515186,happy
350,邬桥居委会,2,1,0,庄行镇,奉贤区,121.398561654296,30.9629757677175,0.5,POINT (121.398561654296 30.9629757677175),-0.9401915124288907,-0.814136180259632,-0.79015692019376,-0.42920557533515186,very unhappy
351,邮电新村居委会,3,1,1,宝山路街道,静安区,121.465277899855,31.2575864502545,0.9166666666666665,POINT (121.465277899855 31.2575864502545),1.230960050399798,0.03309247552429061,0.41310195806231914,-0.0074737289237464645,very happy
352,邮电新村居委会,3,1,1,欧阳路街道,虹口区,121.490945944999,31.27348883734,0.9166666666666665,POINT (121.490945944999 31.27348883734),1.7504486198842457,1.4854844568681578,-0.12167976560704942,1.2577218103104697,very happy
353,邵厂居委会,3,0,0,四团镇,奉贤区,121.752964896213,30.9123212034608,0.25,POINT (121.752964896213 30.9123212034608),-0.9401915124288907,-1.0562015104836098,-0.9238523511111022,-0.8509374217465573,very unhappy
354,金丰城第一居委会,3,1,1,华漕镇,闵行区,121.279012618137,31.2103700256562,0.9166666666666665,POINT (121.279012618137 31.2103700256562),-0.8918669943373142,-0.814136180259632,-0.6564614892764179,-0.42920557533515186,very happy
355,金台路第二居委会,2,1,1,金杨新村街道,浦东新区,121.581776072308,31.2500332782132,0.8333333333333333,POINT (121.581776072308 31.2500332782132),-0.5328848599427456,-0.693103515147643,-0.38907062744173365,-0.42920557533515186,happy
356,金园社区居委会,3,1,1,江桥镇,嘉定区,121.313110526829,31.2443865457025,0.9166666666666665,POINT (121.313110526829 31.2443865457025),0.0556387353868115,-0.814136180259632,-0.38907062744173365,-0.8509374217465573,very happy
357,金坛居委会,3,1,1,小东门街道,黄浦区,121.492895870348,31.2195480585961,0.9166666666666665,POINT (121.492895870348 31.2195480585961),0.8409121543749302,1.122386461532191,0.8141882508143455,-0.42920557533515186,very happy
358,金枫居委会,3,1,0,唐镇,浦东新区,121.676202447285,31.2428440348243,0.5833333333333333,POINT (121.676202447285 31.2428440348243),-0.9281103829059966,-0.3300055198116762,-0.5227660583590759,-0.8509374217465573,very unhappy
359,金沙新村居委会,4,1,1,长风新村街道,普陀区,121.410684980427,31.2323001799094,1.0,POINT (121.410684980427 31.2323001799094),0.7080197296230948,0.15412514063627955,0.6136451044383323,2.1011855031332805,very happy
360,金沙滩居委会,2,1,1,岳阳街道,松江区,121.23366449552,31.0025217082103,0.8333333333333333,POINT (121.23366449552 31.0025217082103),-0.9401915124288907,-0.20897285469968727,0.14571109622763484,-0.0074737289237464645,happy
361,金沙雅苑居委会,2,1,1,长征镇,普陀区,121.36503162431,31.2422383800972,0.8333333333333333,POINT (121.36503162431 31.2422383800972),0.5941119369786644,0.2751578057482685,-0.38907062744173365,-0.8509374217465573,happy
362,金莱社区居委会,3,1,1,江桥镇,嘉定区,121.311177224549,31.2416009487248,0.9166666666666665,POINT (121.311177224549 31.2416009487248),0.026298849402640028,-0.814136180259632,-0.5227660583590759,-0.8509374217465573,very happy
363,金葫芦第二社区居委会,3,1,1,赵巷镇,青浦区,121.21334108892,31.163584848462,0.9166666666666665,POINT (121.21334108892 31.163584848462),-0.9401915124288907,-0.9351688453716208,-0.723309204735089,-0.8509374217465573,very happy
364,金葵路第一居委会,3,1,1,金桥镇,浦东新区,121.625979721287,31.2428066050408,0.9166666666666665,POINT (121.625979721287 31.2428066050408),-0.9246586316137411,-0.9351688453716208,-0.723309204735089,-0.8509374217465573,very happy
365,金虹社区居委会,2,1,1,江桥镇,嘉定区,121.313152548551,31.2486156912611,0.8333333333333333,POINT (121.313152548551 31.2486156912611),-0.32060215546903437,-0.693103515147643,-0.38907062744173365,-0.8509374217465573,happy
366,金豪居委会,3,1,1,山阳镇,金山区,121.349421733626,30.7364005327584,0.9166666666666665,POINT (121.349421733626 30.7364005327584),-0.9401915124288907,-1.0562015104836098,-0.32222291198306263,-0.8509374217465573,very happy
367,铁岭路五十弄居委会,2,1,1,四平路街道,杨浦区,121.510878571888,31.2811530756539,0.8333333333333333,POINT (121.510878571888 31.2811530756539),2.073187365710132,0.6382558010842353,0.34625424260364807,0.8359899638990643,happy
368,银杏社区居委会,3,0,0,嘉定镇街道,嘉定区,121.235307221451,31.3771056109352,0.25,POINT (121.235307221451 31.3771056109352),-0.9281103829059966,-0.814136180259632,-0.38907062744173365,-0.42920557533515186,very unhappy
369,锦秋第一居委会,3,1,1,大场镇,宝山区,121.386613816474,31.3251627993237,0.9166666666666665,POINT (121.386613816474 31.3251627993237),-0.5604988702807894,-0.4510381849236651,-0.6564614892764179,0.8359899638990643,very happy
370,长宁路一居委会,2,0,1,华阳路街道,长宁区,121.421839403066,31.2290944556446,0.5,POINT (121.421839403066 31.2290944556446),0.3662963516898035,0.2751578057482685,0.14571109622763484,3.788112888778902,very unhappy
371,长宁路一居委会,2,0,1,华阳路街道,长宁区,121.421839403066,31.2290944556446,0.5,POINT (121.421839403066 31.2290944556446),0.3662963516898035,0.2751578057482685,0.14571109622763484,3.788112888778902,very unhappy
372,长宏新苑居委会,3,1,1,淞南镇,宝山区,121.488321905831,31.3435066182358,0.9166666666666665,POINT (121.488321905831 31.3435066182358),0.09878562654000483,-0.3300055198116762,-0.4559183429004047,-0.8509374217465573,very happy
373,长江居委会,3,1,0,南京东路街道,黄浦区,121.464020669218,31.2364652640607,0.5833333333333333,POINT (121.464020669218 31.2364652640607),0.6786798436389233,2.6958111079880474,3.889183161913215,0.4142581174876589,very unhappy
374,长风一村居委会,2,1,0,长风新村街道,普陀区,121.398820231868,31.2287184544931,0.5,POINT (121.398820231868 31.2287184544931),0.05218698409455603,-0.08794018958769832,-0.38907062744173365,-0.0074737289237464645,very unhappy
375,陈家宅居委会,2,1,1,徐家汇街道,徐汇区,121.428500064526,31.1852848823914,0.8333333333333333,POINT (121.428500064526 31.1852848823914),0.5975636882709198,2.937876438212025,1.8837516981530826,2.1011855031332805,happy
376,陈家宅居委会,2,1,1,潍坊新村街道,浦东新区,121.512170204291,31.2240346099093,0.8333333333333333,POINT (121.512170204291 31.2240346099093),-0.5570471189885339,0.5172231359722463,0.279406527144977,-0.8509374217465573,happy
377,陈家宅居委会,2,1,1,沪东新村街道,浦东新区,121.570743689469,31.2674250577202,0.8333333333333333,POINT (121.570743689469 31.2674250577202),-0.8469942275379931,-0.3300055198116762,-0.4559183429004047,-0.0074737289237464645,happy
378,露香居委会,3,1,1,豫园街道,黄浦区,121.480364949882,31.2276992411271,0.9166666666666665,POINT (121.480364949882 31.2276992411271),1.489841397318958,2.8168437731000364,4.156574023747899,0.4142581174876589,very happy
379,青安社区居委会,1,0,1,夏阳街道,青浦区,121.116967089059,31.1615757378301,0.41666666666666663,POINT (121.116967089059 31.1615757378301),-0.9401915124288907,-0.572070850035654,0.012015665310292719,-0.42920557533515186,very unhappy
380,鞍山四村第一居委会,2,1,1,四平路街道,杨浦区,121.505674494682,31.2784463546155,0.8333333333333333,POINT (121.505674494682 31.2784463546155),1.8298388996061214,0.3961904708602574,0.41310195806231914,2.1011855031332805,happy
381,鞍山路三一零弄居委会,2,1,1,四平路街道,杨浦区,121.504818148538,31.2821907539002,0.8333333333333333,POINT (121.504818148538 31.2821907539002),1.871259915113187,-0.20897285469968727,0.07886338076896379,2.9446491959560914,happy
382,香山新村一居委会,3,1,1,金杨新村街道,浦东新区,121.567570405549,31.2423953037003,0.9166666666666665,POINT (121.567570405549 31.2423953037003),-0.6329856474181541,-0.4510381849236651,-0.723309204735089,0.4142581174876589,very happy
383,香花桥街居委会,3,1,1,塘桥街道,浦东新区,121.508542072958,31.2158313980006,0.9166666666666665,POINT (121.508542072958 31.2158313980006),-0.4983673470201909,-0.3300055198116762,-0.4559183429004047,0.4142581174876589,very happy
384,馨汇南苑居委会,2,1,1,漕河泾街道,徐汇区,121.435373692641,31.1632336164382,0.8333333333333333,POINT (121.435373692641 31.1632336164382),0.4387831288271683,0.15412514063627955,-0.38907062744173365,-0.0074737289237464645,happy
385,馨苑居委会,3,1,1,凉城新村街道,虹口区,121.459130978811,31.2919417116407,0.9166666666666665,POINT (121.459130978811 31.2919417116407),0.1643689010928587,-0.693103515147643,-0.5227660583590759,-0.8509374217465573,very happy
386,馨苑居委会,3,1,1,万祥镇,浦东新区,121.812223229518,30.9674917601366,0.9166666666666665,POINT (121.812223229518 30.9674917601366),-0.9401915124288907,-1.0562015104836098,-0.9238523511111022,-0.8509374217465573,very happy
387,马路桥居委会,3,1,0,岳阳街道,松江区,121.222332791325,31.0065537664432,0.5833333333333333,POINT (121.222332791325 31.0065537664432),-0.9401915124288907,0.2751578057482685,0.6136451044383323,-0.0074737289237464645,very unhappy
388,高华新村第三居委会,2,1,1,江川路街道,闵行区,121.418534149031,31.0038836873823,0.8333333333333333,POINT (121.418534149031 31.0038836873823),-0.9212068803214857,-0.572070850035654,-0.38907062744173365,-0.8509374217465573,happy
389,鸿兴居委会,3,1,1,提篮桥街道,虹口区,121.497307079158,31.2586967640444,0.9166666666666665,POINT (121.497307079158 31.2586967640444),1.1377627655089004,0.6382558010842353,0.14571109622763484,0.4142581174876589,very happy
390,黄渡路居委会,2,1,1,四川北路街道,虹口区,121.476928661028,31.2691603211919,0.8333333333333333,POINT (121.476928661028 31.2691603211919),1.50364840248798,3.179941768436003,0.8810359662730166,1.679453656721875,happy
391,鼎信居委会,4,1,0,方松街道,松江区,121.228428778365,31.0328140016649,0.6666666666666666,POINT (121.228428778365 31.0328140016649),-0.9401915124288907,-0.3300055198116762,-0.5227660583590759,-0.42920557533515186,very unhappy
392,齐河第四居委会,2,1,0,周家渡街道,浦东新区,121.511665166614,31.1836392948176,0.5,POINT (121.511665166614 31.1836392948176),-0.5294331086504901,-0.3300055198116762,-0.5896137738177468,-0.8509374217465573,very unhappy
393,龙阳居委会,3,1,0,徐泾镇,青浦区,121.272024461359,31.1710851691452,0.5833333333333333,POINT (121.272024461359 31.1710851691452),-0.8677047352915259,-0.814136180259632,-0.4559183429004047,-0.0074737289237464645,very unhappy
394,龙阳路居委会,3,1,0,塘桥街道,浦东新区,121.524910617331,31.2071493942291,0.5833333333333333,POINT (121.524910617331 31.2071493942291),-0.6519702795255592,-0.3300055198116762,-0.4559183429004047,0.4142581174876589,very unhappy
